[
  {
    "id": "seed-09501",
    "camera_name": "Zurich Ski Resort Cam",
    "latitude": 47.409997,
    "longitude": 8.540205,
    "country": "Switzerland",
    "state_or_region": "Switzerland",
    "city": "Zurich",
    "category": "ski",
    "stream_url": "https://seedcams.us-webcam-monitor.local/switzerland-switzerland-zurich-ski-9501/webcam",
    "stream_type": "EMBED",
    "source_website": "https://www.matterhornparadise.ch/",
    "status": "unknown"
  },
  {
    "id": "seed-09502",
    "camera_name": "Lucerne Downtown Cam",
    "latitude": 47.069438,
    "longitude": 8.290469,
    "country": "Switzerland",
    "state_or_region": "Switzerland",
    "city": "Lucerne",
    "category": "city",
    "stream_url": "https://seedcams.us-webcam-monitor.local/switzerland-switzerland-lucerne-city-9502/camera",
    "stream_type": "UNKNOWN",
    "source_website": "https://www.skylinewebcams.com/",
    "status": "unknown"
  },
  {
    "id": "seed-09503",
    "camera_name": "Zermatt City Center Webcam",
    "latitude": 45.968654,
    "longitude": 7.764395,
    "country": "Switzerland",
    "state_or_region": "Switzerland",
    "city": "Zermatt",
    "category": "city",
    "stream_url": "https://seedcams.us-webcam-monitor.local/switzerland-switzerland-zermatt-city-9503/master.m3u8",
    "stream_type": "HLS",
    "source_website": "https://www.earthcam.com/",
    "status": "unknown"
  },
  {
    "id": "seed-09504",
    "camera_name": "Interlaken Lift Cam",
    "latitude": 46.726199,
    "longitude": 7.791118,
    "country": "Switzerland",
    "state_or_region": "Switzerland",
    "city": "Interlaken",
    "category": "ski",
    "stream_url": "https://seedcams.us-webcam-monitor.local/switzerland-switzerland-interlaken-ski-9504/master.m3u8",
    "stream_type": "HLS",
    "source_website": "https://www.matterhornparadise.ch/",
    "status": "unknown"
  },
  {
    "id": "seed-09505",
    "camera_name": "Zurich Town Square Cam",
    "latitude": 47.29976,
    "longitude": 8.556639,
    "country": "Switzerland",
    "state_or_region": "Switzerland",
    "city": "Zurich",
    "category": "town",
    "stream_url": "https://seedcams.us-webcam-monitor.local/switzerland-switzerland-zurich-town-9505/camera",
    "stream_type": "UNKNOWN",
    "source_website": "https://www.earthcam.com/",
    "status": "unknown"
  },
  {
    "id": "seed-09506",
    "camera_name": "Lucerne Highway Camera",
    "latitude": 46.978556,
    "longitude": 8.379166,
    "country": "Switzerland",
    "state_or_region": "Switzerland",
    "city": "Lucerne",
    "category": "traffic",
    "stream_url": "https://seedcams.us-webcam-monitor.local/switzerland-switzerland-lucerne-traffic-9506/video.mjpg",
    "stream_type": "MJPEG",
    "source_website": "https://www.astra.admin.ch/",
    "status": "unknown"
  },
  {
    "id": "seed-09507",
    "camera_name": "Zermatt Interchange Cam",
    "latitude": 45.93983,
    "longitude": 7.664389,
    "country": "Switzerland",
    "state_or_region": "Switzerland",
    "city": "Zermatt",
    "category": "traffic",
    "stream_url": "https://seedcams.us-webcam-monitor.local/switzerland-switzerland-zermatt-traffic-9507/snapshot.jpg",
    "stream_type": "IMAGE",
    "source_website": "https://www.astra.admin.ch/",
    "status": "unknown"
  },
  {
    "id": "seed-09508",
    "camera_name": "Interlaken Conditions Cam",
    "latitude": 46.73399,
    "longitude": 7.781183,
    "country": "Switzerland",
    "state_or_region": "Switzerland",
    "city": "Interlaken",
    "category": "weather",
    "stream_url": "https://seedcams.us-webcam-monitor.local/switzerland-switzerland-interlaken-weather-9508/snapshot.jpg",
    "stream_type": "IMAGE",
    "source_website": "https://www.weatherbug.com/",
    "status": "unknown"
  },
  {
    "id": "seed-09509",
    "camera_name": "Zurich Tourism Cam",
    "latitude": 47.390719,
    "longitude": 8.623542,
    "country": "Switzerland",
    "state_or_region": "Switzerland",
    "city": "Zurich",
    "category": "tourism",
    "stream_url": "https://seedcams.us-webcam-monitor.local/switzerland-switzerland-zurich-tourism-9509/master.m3u8",
    "stream_type": "HLS",
    "source_website": "https://www.myswitzerland.com/",
    "status": "unknown"
  },
  {
    "id": "seed-09510",
    "camera_name": "Lucerne Landmark Webcam",
    "latitude": 47.088264,
    "longitude": 8.377134,
    "country": "Switzerland",
    "state_or_region": "Switzerland",
    "city": "Lucerne",
    "category": "tourism",
    "stream_url": "https://seedcams.us-webcam-monitor.local/switzerland-switzerland-lucerne-tourism-9510/snapshot.jpg",
    "stream_type": "IMAGE",
    "source_website": "https://www.myswitzerland.com/",
    "status": "unknown"
  },
  {
    "id": "seed-09511",
    "camera_name": "Zermatt Wildlife Cam",
    "latitude": 46.061971,
    "longitude": 7.691745,
    "country": "Switzerland",
    "state_or_region": "Switzerland",
    "city": "Zermatt",
    "category": "park",
    "stream_url": "https://seedcams.us-webcam-monitor.local/switzerland-switzerland-zermatt-park-9511/snapshot.jpg",
    "stream_type": "IMAGE",
    "source_website": "https://www.nps.gov/",
    "status": "unknown"
  },
  {
    "id": "seed-09512",
    "camera_name": "Interlaken Live View Cam",
    "latitude": 46.696689,
    "longitude": 7.914563,
    "country": "Switzerland",
    "state_or_region": "Switzerland",
    "city": "Interlaken",
    "category": "tourism",
    "stream_url": "https://seedcams.us-webcam-monitor.local/switzerland-switzerland-interlaken-tourism-9512/camera",
    "stream_type": "UNKNOWN",
    "source_website": "https://www.myswitzerland.com/",
    "status": "unknown"
  },
  {
    "id": "seed-09513",
    "camera_name": "Zurich Ski Resort Cam",
    "latitude": 47.413597,
    "longitude": 8.596659,
    "country": "Switzerland",
    "state_or_region": "Switzerland",
    "city": "Zurich",
    "category": "ski",
    "stream_url": "https://seedcams.us-webcam-monitor.local/switzerland-switzerland-zurich-ski-9513/master.m3u8",
    "stream_type": "HLS",
    "source_website": "https://www.matterhornparadise.ch/",
    "status": "unknown"
  },
  {
    "id": "seed-09514",
    "camera_name": "Lucerne Highway Camera",
    "latitude": 47.097743,
    "longitude": 8.322894,
    "country": "Switzerland",
    "state_or_region": "Switzerland",
    "city": "Lucerne",
    "category": "traffic",
    "stream_url": "https://seedcams.us-webcam-monitor.local/switzerland-switzerland-lucerne-traffic-9514/master.m3u8",
    "stream_type": "HLS",
    "source_website": "https://www.astra.admin.ch/",
    "status": "unknown"
  },
  {
    "id": "seed-09515",
    "camera_name": "Zermatt Sky Cam",
    "latitude": 45.949569,
    "longitude": 7.745507,
    "country": "Switzerland",
    "state_or_region": "Switzerland",
    "city": "Zermatt",
    "category": "weather",
    "stream_url": "https://seedcams.us-webcam-monitor.local/switzerland-switzerland-zermatt-weather-9515/camera",
    "stream_type": "UNKNOWN",
    "source_website": "https://weather.gov/",
    "status": "unknown"
  },
  {
    "id": "seed-09516",
    "camera_name": "Interlaken Village Cam",
    "latitude": 46.697434,
    "longitude": 7.852329,
    "country": "Switzerland",
    "state_or_region": "Switzerland",
    "city": "Interlaken",
    "category": "town",
    "stream_url": "https://seedcams.us-webcam-monitor.local/switzerland-switzerland-interlaken-town-9516/camera",
    "stream_type": "UNKNOWN",
    "source_website": "https://www.visit-europe.com/",
    "status": "unknown"
  },
  {
    "id": "seed-09517",
    "camera_name": "Zurich Ski Resort Cam",
    "latitude": 47.317402,
    "longitude": 8.492234,
    "country": "Switzerland",
    "state_or_region": "Switzerland",
    "city": "Zurich",
    "category": "ski",
    "stream_url": "https://seedcams.us-webcam-monitor.local/switzerland-switzerland-zurich-ski-9517/snapshot.jpg",
    "stream_type": "IMAGE",
    "source_website": "https://www.matterhornparadise.ch/",
    "status": "unknown"
  },
  {
    "id": "seed-09518",
    "camera_name": "Lucerne Main Street Cam",
    "latitude": 47.130539,
    "longitude": 8.319001,
    "country": "Switzerland",
    "state_or_region": "Switzerland",
    "city": "Lucerne",
    "category": "town",
    "stream_url": "https://seedcams.us-webcam-monitor.local/switzerland-switzerland-lucerne-town-9518/webcam",
    "stream_type": "EMBED",
    "source_website": "https://www.visit-europe.com/",
    "status": "unknown"
  },
  {
    "id": "seed-09519",
    "camera_name": "Zermatt Wildlife Cam",
    "latitude": 46.023556,
    "longitude": 7.770209,
    "country": "Switzerland",
    "state_or_region": "Switzerland",
    "city": "Zermatt",
    "category": "park",
    "stream_url": "https://seedcams.us-webcam-monitor.local/switzerland-switzerland-zermatt-park-9519/master.m3u8",
    "stream_type": "HLS",
    "source_website": "https://www.nps.gov/",
    "status": "unknown"
  },
  {
    "id": "seed-09520",
    "camera_name": "Interlaken Live View Cam",
    "latitude": 46.608469,
    "longitude": 7.792408,
    "country": "Switzerland",
    "state_or_region": "Switzerland",
    "city": "Interlaken",
    "category": "tourism",
    "stream_url": "https://seedcams.us-webcam-monitor.local/switzerland-switzerland-interlaken-tourism-9520/webcam",
    "stream_type": "EMBED",
    "source_website": "https://www.myswitzerland.com/",
    "status": "unknown"
  },
  {
    "id": "seed-09521",
    "camera_name": "Zurich Weather Cam",
    "latitude": 47.438541,
    "longitude": 8.505987,
    "country": "Switzerland",
    "state_or_region": "Switzerland",
    "city": "Zurich",
    "category": "weather",
    "stream_url": "https://seedcams.us-webcam-monitor.local/switzerland-switzerland-zurich-weather-9521/camera",
    "stream_type": "UNKNOWN",
    "source_website": "https://weather.gov/",
    "status": "unknown"
  },
  {
    "id": "seed-09522",
    "camera_name": "Lucerne Landmark Webcam",
    "latitude": 47.101813,
    "longitude": 8.364035,
    "country": "Switzerland",
    "state_or_region": "Switzerland",
    "city": "Lucerne",
    "category": "tourism",
    "stream_url": "https://seedcams.us-webcam-monitor.local/switzerland-switzerland-lucerne-tourism-9522/master.m3u8",
    "stream_type": "HLS",
    "source_website": "https://www.myswitzerland.com/",
    "status": "unknown"
  },
  {
    "id": "seed-09523",
    "camera_name": "Zermatt City Center Webcam",
    "latitude": 46.045531,
    "longitude": 7.836329,
    "country": "Switzerland",
    "state_or_region": "Switzerland",
    "city": "Zermatt",
    "category": "city",
    "stream_url": "https://seedcams.us-webcam-monitor.local/switzerland-switzerland-zermatt-city-9523/master.m3u8",
    "stream_type": "HLS",
    "source_website": "https://www.earthcam.com/",
    "status": "unknown"
  },
  {
    "id": "seed-09524",
    "camera_name": "Interlaken Lift Cam",
    "latitude": 46.637936,
    "longitude": 7.795394,
    "country": "Switzerland",
    "state_or_region": "Switzerland",
    "city": "Interlaken",
    "category": "ski",
    "stream_url": "https://seedcams.us-webcam-monitor.local/switzerland-switzerland-interlaken-ski-9524/webcam",
    "stream_type": "EMBED",
    "source_website": "https://www.matterhornparadise.ch/",
    "status": "unknown"
  },
  {
    "id": "seed-09525",
    "camera_name": "Zurich Weather Cam",
    "latitude": 47.297916,
    "longitude": 8.496737,
    "country": "Switzerland",
    "state_or_region": "Switzerland",
    "city": "Zurich",
    "category": "weather",
    "stream_url": "https://seedcams.us-webcam-monitor.local/switzerland-switzerland-zurich-weather-9525/snapshot.jpg",
    "stream_type": "IMAGE",
    "source_website": "https://weather.gov/",
    "status": "unknown"
  },
  {
    "id": "seed-09526",
    "camera_name": "Lucerne Storm Watch Cam",
    "latitude": 47.111817,
    "longitude": 8.275669,
    "country": "Switzerland",
    "state_or_region": "Switzerland",
    "city": "Lucerne",
    "category": "weather",
    "stream_url": "https://seedcams.us-webcam-monitor.local/switzerland-switzerland-lucerne-weather-9526/snapshot.jpg",
    "stream_type": "IMAGE",
    "source_website": "https://www.weatherbug.com/",
    "status": "unknown"
  },
  {
    "id": "seed-09527",
    "camera_name": "Zermatt Interchange Cam",
    "latitude": 46.08952,
    "longitude": 7.661846,
    "country": "Switzerland",
    "state_or_region": "Switzerland",
    "city": "Zermatt",
    "category": "traffic",
    "stream_url": "https://seedcams.us-webcam-monitor.local/switzerland-switzerland-zermatt-traffic-9527/master.m3u8",
    "stream_type": "HLS",
    "source_website": "https://www.astra.admin.ch/",
    "status": "unknown"
  },
  {
    "id": "seed-09528",
    "camera_name": "Interlaken Conditions Cam",
    "latitude": 46.660394,
    "longitude": 7.890202,
    "country": "Switzerland",
    "state_or_region": "Switzerland",
    "city": "Interlaken",
    "category": "weather",
    "stream_url": "https://seedcams.us-webcam-monitor.local/switzerland-switzerland-interlaken-weather-9528/snapshot.jpg",
    "stream_type": "IMAGE",
    "source_website": "https://www.weatherbug.com/",
    "status": "unknown"
  },
  {
    "id": "seed-09529",
    "camera_name": "Zurich Ski Resort Cam",
    "latitude": 47.323704,
    "longitude": 8.499184,
    "country": "Switzerland",
    "state_or_region": "Switzerland",
    "city": "Zurich",
    "category": "ski",
    "stream_url": "https://seedcams.us-webcam-monitor.local/switzerland-switzerland-zurich-ski-9529/master.m3u8",
    "stream_type": "HLS",
    "source_website": "https://www.matterhornparadise.ch/",
    "status": "unknown"
  },
  {
    "id": "seed-09530",
    "camera_name": "Lucerne Landmark Webcam",
    "latitude": 47.10043,
    "longitude": 8.224238,
    "country": "Switzerland",
    "state_or_region": "Switzerland",
    "city": "Lucerne",
    "category": "tourism",
    "stream_url": "https://seedcams.us-webcam-monitor.local/switzerland-switzerland-lucerne-tourism-9530/snapshot.jpg",
    "stream_type": "IMAGE",
    "source_website": "https://www.myswitzerland.com/",
    "status": "unknown"
  },
  {
    "id": "seed-09531",
    "camera_name": "Zermatt City Center Webcam",
    "latitude": 46.048044,
    "longitude": 7.700922,
    "country": "Switzerland",
    "state_or_region": "Switzerland",
    "city": "Zermatt",
    "category": "city",
    "stream_url": "https://seedcams.us-webcam-monitor.local/switzerland-switzerland-zermatt-city-9531/master.m3u8",
    "stream_type": "HLS",
    "source_website": "https://www.earthcam.com/",
    "status": "unknown"
  },
  {
    "id": "seed-09532",
    "camera_name": "Interlaken Village Cam",
    "latitude": 46.763786,
    "longitude": 7.904449,
    "country": "Switzerland",
    "state_or_region": "Switzerland",
    "city": "Interlaken",
    "category": "town",
    "stream_url": "https://seedcams.us-webcam-monitor.local/switzerland-switzerland-interlaken-town-9532/snapshot.jpg",
    "stream_type": "IMAGE",
    "source_website": "https://www.visit-europe.com/",
    "status": "unknown"
  },
  {
    "id": "seed-09533",
    "camera_name": "Zurich Ski Resort Cam",
    "latitude": 47.393381,
    "longitude": 8.5513,
    "country": "Switzerland",
    "state_or_region": "Switzerland",
    "city": "Zurich",
    "category": "ski",
    "stream_url": "https://seedcams.us-webcam-monitor.local/switzerland-switzerland-zurich-ski-9533/snapshot.jpg",
    "stream_type": "IMAGE",
    "source_website": "https://www.matterhornparadise.ch/",
    "status": "unknown"
  },
  {
    "id": "seed-09534",
    "camera_name": "Lucerne Nature Cam",
    "latitude": 47.047739,
    "longitude": 8.283039,
    "country": "Switzerland",
    "state_or_region": "Switzerland",
    "city": "Lucerne",
    "category": "park",
    "stream_url": "https://seedcams.us-webcam-monitor.local/switzerland-switzerland-lucerne-park-9534/snapshot.jpg",
    "stream_type": "IMAGE",
    "source_website": "https://www.explore.org/",
    "status": "unknown"
  },
  {
    "id": "seed-09535",
    "camera_name": "Zermatt Base Area Cam",
    "latitude": 46.00741,
    "longitude": 7.712162,
    "country": "Switzerland",
    "state_or_region": "Switzerland",
    "city": "Zermatt",
    "category": "ski",
    "stream_url": "https://seedcams.us-webcam-monitor.local/switzerland-switzerland-zermatt-ski-9535/camera",
    "stream_type": "UNKNOWN",
    "source_website": "https://www.matterhornparadise.ch/",
    "status": "unknown"
  },
  {
    "id": "seed-09536",
    "camera_name": "Interlaken Conditions Cam",
    "latitude": 46.766799,
    "longitude": 7.812146,
    "country": "Switzerland",
    "state_or_region": "Switzerland",
    "city": "Interlaken",
    "category": "weather",
    "stream_url": "https://seedcams.us-webcam-monitor.local/switzerland-switzerland-interlaken-weather-9536/camera",
    "stream_type": "UNKNOWN",
    "source_website": "https://www.weatherbug.com/",
    "status": "unknown"
  },
  {
    "id": "seed-09537",
    "camera_name": "Zurich Traffic Camera",
    "latitude": 47.355539,
    "longitude": 8.526597,
    "country": "Switzerland",
    "state_or_region": "Switzerland",
    "city": "Zurich",
    "category": "traffic",
    "stream_url": "https://seedcams.us-webcam-monitor.local/switzerland-switzerland-zurich-traffic-9537/master.m3u8",
    "stream_type": "HLS",
    "source_website": "https://www.astra.admin.ch/",
    "status": "unknown"
  },
  {
    "id": "seed-09538",
    "camera_name": "Lucerne Landmark Webcam",
    "latitude": 47.12043,
    "longitude": 8.344959,
    "country": "Switzerland",
    "state_or_region": "Switzerland",
    "city": "Lucerne",
    "category": "tourism",
    "stream_url": "https://seedcams.us-webcam-monitor.local/switzerland-switzerland-lucerne-tourism-9538/webcam",
    "stream_type": "EMBED",
    "source_website": "https://www.myswitzerland.com/",
    "status": "unknown"
  },
  {
    "id": "seed-09539",
    "camera_name": "Zermatt Sky Cam",
    "latitude": 45.94701,
    "longitude": 7.762253,
    "country": "Switzerland",
    "state_or_region": "Switzerland",
    "city": "Zermatt",
    "category": "weather",
    "stream_url": "https://seedcams.us-webcam-monitor.local/switzerland-switzerland-zermatt-weather-9539/camera",
    "stream_type": "UNKNOWN",
    "source_website": "https://weather.gov/",
    "status": "unknown"
  },
  {
    "id": "seed-09540",
    "camera_name": "Interlaken Village Cam",
    "latitude": 46.721753,
    "longitude": 7.953002,
    "country": "Switzerland",
    "state_or_region": "Switzerland",
    "city": "Interlaken",
    "category": "town",
    "stream_url": "https://seedcams.us-webcam-monitor.local/switzerland-switzerland-interlaken-town-9540/camera",
    "stream_type": "UNKNOWN",
    "source_website": "https://www.visit-europe.com/",
    "status": "unknown"
  },
  {
    "id": "seed-09541",
    "camera_name": "Zurich Town Square Cam",
    "latitude": 47.347553,
    "longitude": 8.491339,
    "country": "Switzerland",
    "state_or_region": "Switzerland",
    "city": "Zurich",
    "category": "town",
    "stream_url": "https://seedcams.us-webcam-monitor.local/switzerland-switzerland-zurich-town-9541/video.mjpg",
    "stream_type": "MJPEG",
    "source_website": "https://www.earthcam.com/",
    "status": "unknown"
  },
  {
    "id": "seed-09542",
    "camera_name": "Lucerne Downtown Cam",
    "latitude": 47.090952,
    "longitude": 8.370684,
    "country": "Switzerland",
    "state_or_region": "Switzerland",
    "city": "Lucerne",
    "category": "city",
    "stream_url": "https://seedcams.us-webcam-monitor.local/switzerland-switzerland-lucerne-city-9542/webcam",
    "stream_type": "EMBED",
    "source_website": "https://www.skylinewebcams.com/",
    "status": "unknown"
  },
  {
    "id": "seed-09543",
    "camera_name": "Zermatt Sky Cam",
    "latitude": 46.01848,
    "longitude": 7.771198,
    "country": "Switzerland",
    "state_or_region": "Switzerland",
    "city": "Zermatt",
    "category": "weather",
    "stream_url": "https://seedcams.us-webcam-monitor.local/switzerland-switzerland-zermatt-weather-9543/snapshot.jpg",
    "stream_type": "IMAGE",
    "source_website": "https://weather.gov/",
    "status": "unknown"
  },
  {
    "id": "seed-09544",
    "camera_name": "Interlaken Village Cam",
    "latitude": 46.766925,
    "longitude": 7.860616,
    "country": "Switzerland",
    "state_or_region": "Switzerland",
    "city": "Interlaken",
    "category": "town",
    "stream_url": "https://seedcams.us-webcam-monitor.local/switzerland-switzerland-interlaken-town-9544/snapshot.jpg",
    "stream_type": "IMAGE",
    "source_website": "https://www.visit-europe.com/",
    "status": "unknown"
  },
  {
    "id": "seed-09545",
    "camera_name": "Zurich Skyline Cam",
    "latitude": 47.36145,
    "longitude": 8.597635,
    "country": "Switzerland",
    "state_or_region": "Switzerland",
    "city": "Zurich",
    "category": "city",
    "stream_url": "https://seedcams.us-webcam-monitor.local/switzerland-switzerland-zurich-city-9545/master.m3u8",
    "stream_type": "HLS",
    "source_website": "https://www.earthcam.com/",
    "status": "unknown"
  },
  {
    "id": "seed-09546",
    "camera_name": "Lucerne Downtown Cam",
    "latitude": 47.121508,
    "longitude": 8.270923,
    "country": "Switzerland",
    "state_or_region": "Switzerland",
    "city": "Lucerne",
    "category": "city",
    "stream_url": "https://seedcams.us-webcam-monitor.local/switzerland-switzerland-lucerne-city-9546/camera",
    "stream_type": "UNKNOWN",
    "source_website": "https://www.skylinewebcams.com/",
    "status": "unknown"
  },
  {
    "id": "seed-09547",
    "camera_name": "Zermatt Intersection Cam",
    "latitude": 45.938815,
    "longitude": 7.684998,
    "country": "Switzerland",
    "state_or_region": "Switzerland",
    "city": "Zermatt",
    "category": "town",
    "stream_url": "https://seedcams.us-webcam-monitor.local/switzerland-switzerland-zermatt-town-9547/webcam",
    "stream_type": "EMBED",
    "source_website": "https://www.earthcam.com/",
    "status": "unknown"
  },
  {
    "id": "seed-09548",
    "camera_name": "Interlaken Road Watch Cam",
    "latitude": 46.644954,
    "longitude": 7.948479,
    "country": "Switzerland",
    "state_or_region": "Switzerland",
    "city": "Interlaken",
    "category": "traffic",
    "stream_url": "https://seedcams.us-webcam-monitor.local/switzerland-switzerland-interlaken-traffic-9548/video.mjpg",
    "stream_type": "MJPEG",
    "source_website": "https://www.astra.admin.ch/",
    "status": "unknown"
  },
  {
    "id": "seed-09549",
    "camera_name": "Zurich Weather Cam",
    "latitude": 47.387498,
    "longitude": 8.619402,
    "country": "Switzerland",
    "state_or_region": "Switzerland",
    "city": "Zurich",
    "category": "weather",
    "stream_url": "https://seedcams.us-webcam-monitor.local/switzerland-switzerland-zurich-weather-9549/snapshot.jpg",
    "stream_type": "IMAGE",
    "source_website": "https://weather.gov/",
    "status": "unknown"
  },
  {
    "id": "seed-09550",
    "camera_name": "Lucerne Storm Watch Cam",
    "latitude": 47.102281,
    "longitude": 8.277128,
    "country": "Switzerland",
    "state_or_region": "Switzerland",
    "city": "Lucerne",
    "category": "weather",
    "stream_url": "https://seedcams.us-webcam-monitor.local/switzerland-switzerland-lucerne-weather-9550/snapshot.jpg",
    "stream_type": "IMAGE",
    "source_website": "https://www.weatherbug.com/",
    "status": "unknown"
  },
  {
    "id": "seed-09551",
    "camera_name": "Zermatt Boardwalk Cam",
    "latitude": 46.080906,
    "longitude": 7.762696,
    "country": "Switzerland",
    "state_or_region": "Switzerland",
    "city": "Zermatt",
    "category": "tourism",
    "stream_url": "https://seedcams.us-webcam-monitor.local/switzerland-switzerland-zermatt-tourism-9551/camera",
    "stream_type": "UNKNOWN",
    "source_website": "https://www.myswitzerland.com/",
    "status": "unknown"
  },
  {
    "id": "seed-09552",
    "camera_name": "Interlaken Main Street Cam",
    "latitude": 46.756699,
    "longitude": 7.842426,
    "country": "Switzerland",
    "state_or_region": "Switzerland",
    "city": "Interlaken",
    "category": "city",
    "stream_url": "https://seedcams.us-webcam-monitor.local/switzerland-switzerland-interlaken-city-9552/webcam",
    "stream_type": "EMBED",
    "source_website": "https://www.skylinewebcams.com/",
    "status": "unknown"
  },
  {
    "id": "seed-09553",
    "camera_name": "Zurich Town Square Cam",
    "latitude": 47.401332,
    "longitude": 8.474989,
    "country": "Switzerland",
    "state_or_region": "Switzerland",
    "city": "Zurich",
    "category": "town",
    "stream_url": "https://seedcams.us-webcam-monitor.local/switzerland-switzerland-zurich-town-9553/webcam",
    "stream_type": "EMBED",
    "source_website": "https://www.earthcam.com/",
    "status": "unknown"
  },
  {
    "id": "seed-09554",
    "camera_name": "Lucerne Landmark Webcam",
    "latitude": 47.123375,
    "longitude": 8.353947,
    "country": "Switzerland",
    "state_or_region": "Switzerland",
    "city": "Lucerne",
    "category": "tourism",
    "stream_url": "https://seedcams.us-webcam-monitor.local/switzerland-switzerland-lucerne-tourism-9554/camera",
    "stream_type": "UNKNOWN",
    "source_website": "https://www.myswitzerland.com/",
    "status": "unknown"
  },
  {
    "id": "seed-09555",
    "camera_name": "Zermatt Interchange Cam",
    "latitude": 46.029472,
    "longitude": 7.778158,
    "country": "Switzerland",
    "state_or_region": "Switzerland",
    "city": "Zermatt",
    "category": "traffic",
    "stream_url": "https://seedcams.us-webcam-monitor.local/switzerland-switzerland-zermatt-traffic-9555/video.mjpg",
    "stream_type": "MJPEG",
    "source_website": "https://www.astra.admin.ch/",
    "status": "unknown"
  },
  {
    "id": "seed-09556",
    "camera_name": "Interlaken Main Street Cam",
    "latitude": 46.65278,
    "longitude": 7.948755,
    "country": "Switzerland",
    "state_or_region": "Switzerland",
    "city": "Interlaken",
    "category": "city",
    "stream_url": "https://seedcams.us-webcam-monitor.local/switzerland-switzerland-interlaken-city-9556/snapshot.jpg",
    "stream_type": "IMAGE",
    "source_website": "https://www.skylinewebcams.com/",
    "status": "unknown"
  },
  {
    "id": "seed-09557",
    "camera_name": "Zurich Weather Cam",
    "latitude": 47.38358,
    "longitude": 8.554007,
    "country": "Switzerland",
    "state_or_region": "Switzerland",
    "city": "Zurich",
    "category": "weather",
    "stream_url": "https://seedcams.us-webcam-monitor.local/switzerland-switzerland-zurich-weather-9557/camera",
    "stream_type": "UNKNOWN",
    "source_website": "https://weather.gov/",
    "status": "unknown"
  },
  {
    "id": "seed-09558",
    "camera_name": "Lucerne Landmark Webcam",
    "latitude": 47.11317,
    "longitude": 8.316429,
    "country": "Switzerland",
    "state_or_region": "Switzerland",
    "city": "Lucerne",
    "category": "tourism",
    "stream_url": "https://seedcams.us-webcam-monitor.local/switzerland-switzerland-lucerne-tourism-9558/snapshot.jpg",
    "stream_type": "IMAGE",
    "source_website": "https://www.myswitzerland.com/",
    "status": "unknown"
  },
  {
    "id": "seed-09559",
    "camera_name": "Zermatt Boardwalk Cam",
    "latitude": 45.97805,
    "longitude": 7.71703,
    "country": "Switzerland",
    "state_or_region": "Switzerland",
    "city": "Zermatt",
    "category": "tourism",
    "stream_url": "https://seedcams.us-webcam-monitor.local/switzerland-switzerland-zermatt-tourism-9559/camera",
    "stream_type": "UNKNOWN",
    "source_website": "https://www.myswitzerland.com/",
    "status": "unknown"
  },
  {
    "id": "seed-09560",
    "camera_name": "Interlaken Conditions Cam",
    "latitude": 46.776102,
    "longitude": 7.907141,
    "country": "Switzerland",
    "state_or_region": "Switzerland",
    "city": "Interlaken",
    "category": "weather",
    "stream_url": "https://seedcams.us-webcam-monitor.local/switzerland-switzerland-interlaken-weather-9560/master.m3u8",
    "stream_type": "HLS",
    "source_website": "https://www.weatherbug.com/",
    "status": "unknown"
  },
  {
    "id": "seed-09561",
    "camera_name": "Zurich Tourism Cam",
    "latitude": 47.435287,
    "longitude": 8.532207,
    "country": "Switzerland",
    "state_or_region": "Switzerland",
    "city": "Zurich",
    "category": "tourism",
    "stream_url": "https://seedcams.us-webcam-monitor.local/switzerland-switzerland-zurich-tourism-9561/snapshot.jpg",
    "stream_type": "IMAGE",
    "source_website": "https://www.myswitzerland.com/",
    "status": "unknown"
  },
  {
    "id": "seed-09562",
    "camera_name": "Lucerne Storm Watch Cam",
    "latitude": 47.134752,
    "longitude": 8.266154,
    "country": "Switzerland",
    "state_or_region": "Switzerland",
    "city": "Lucerne",
    "category": "weather",
    "stream_url": "https://seedcams.us-webcam-monitor.local/switzerland-switzerland-lucerne-weather-9562/snapshot.jpg",
    "stream_type": "IMAGE",
    "source_website": "https://www.weatherbug.com/",
    "status": "unknown"
  },
  {
    "id": "seed-09563",
    "camera_name": "Zermatt Intersection Cam",
    "latitude": 46.093453,
    "longitude": 7.834374,
    "country": "Switzerland",
    "state_or_region": "Switzerland",
    "city": "Zermatt",
    "category": "town",
    "stream_url": "https://seedcams.us-webcam-monitor.local/switzerland-switzerland-zermatt-town-9563/video.mjpg",
    "stream_type": "MJPEG",
    "source_website": "https://www.earthcam.com/",
    "status": "unknown"
  },
  {
    "id": "seed-09564",
    "camera_name": "Interlaken Village Cam",
    "latitude": 46.716177,
    "longitude": 7.848769,
    "country": "Switzerland",
    "state_or_region": "Switzerland",
    "city": "Interlaken",
    "category": "town",
    "stream_url": "https://seedcams.us-webcam-monitor.local/switzerland-switzerland-interlaken-town-9564/camera",
    "stream_type": "UNKNOWN",
    "source_website": "https://www.visit-europe.com/",
    "status": "unknown"
  },
  {
    "id": "seed-09565",
    "camera_name": "Zurich Tourism Cam",
    "latitude": 47.388416,
    "longitude": 8.483072,
    "country": "Switzerland",
    "state_or_region": "Switzerland",
    "city": "Zurich",
    "category": "tourism",
    "stream_url": "https://seedcams.us-webcam-monitor.local/switzerland-switzerland-zurich-tourism-9565/webcam",
    "stream_type": "EMBED",
    "source_website": "https://www.myswitzerland.com/",
    "status": "unknown"
  },
  {
    "id": "seed-09566",
    "camera_name": "Lucerne Highway Camera",
    "latitude": 47.049915,
    "longitude": 8.276173,
    "country": "Switzerland",
    "state_or_region": "Switzerland",
    "city": "Lucerne",
    "category": "traffic",
    "stream_url": "https://seedcams.us-webcam-monitor.local/switzerland-switzerland-lucerne-traffic-9566/snapshot.jpg",
    "stream_type": "IMAGE",
    "source_website": "https://www.astra.admin.ch/",
    "status": "unknown"
  },
  {
    "id": "seed-09567",
    "camera_name": "Zermatt Boardwalk Cam",
    "latitude": 45.937078,
    "longitude": 7.835674,
    "country": "Switzerland",
    "state_or_region": "Switzerland",
    "city": "Zermatt",
    "category": "tourism",
    "stream_url": "https://seedcams.us-webcam-monitor.local/switzerland-switzerland-zermatt-tourism-9567/snapshot.jpg",
    "stream_type": "IMAGE",
    "source_website": "https://www.myswitzerland.com/",
    "status": "unknown"
  },
  {
    "id": "seed-09568",
    "camera_name": "Interlaken Road Watch Cam",
    "latitude": 46.751837,
    "longitude": 7.787319,
    "country": "Switzerland",
    "state_or_region": "Switzerland",
    "city": "Interlaken",
    "category": "traffic",
    "stream_url": "https://seedcams.us-webcam-monitor.local/switzerland-switzerland-interlaken-traffic-9568/master.m3u8",
    "stream_type": "HLS",
    "source_website": "https://www.astra.admin.ch/",
    "status": "unknown"
  },
  {
    "id": "seed-09569",
    "camera_name": "Zurich Tourism Cam",
    "latitude": 47.400146,
    "longitude": 8.461089,
    "country": "Switzerland",
    "state_or_region": "Switzerland",
    "city": "Zurich",
    "category": "tourism",
    "stream_url": "https://seedcams.us-webcam-monitor.local/switzerland-switzerland-zurich-tourism-9569/webcam",
    "stream_type": "EMBED",
    "source_website": "https://www.myswitzerland.com/",
    "status": "unknown"
  },
  {
    "id": "seed-09570",
    "camera_name": "Lucerne Downtown Cam",
    "latitude": 46.973189,
    "longitude": 8.265172,
    "country": "Switzerland",
    "state_or_region": "Switzerland",
    "city": "Lucerne",
    "category": "city",
    "stream_url": "https://seedcams.us-webcam-monitor.local/switzerland-switzerland-lucerne-city-9570/master.m3u8",
    "stream_type": "HLS",
    "source_website": "https://www.skylinewebcams.com/",
    "status": "unknown"
  },
  {
    "id": "seed-09571",
    "camera_name": "Zermatt Boardwalk Cam",
    "latitude": 45.995383,
    "longitude": 7.752546,
    "country": "Switzerland",
    "state_or_region": "Switzerland",
    "city": "Zermatt",
    "category": "tourism",
    "stream_url": "https://seedcams.us-webcam-monitor.local/switzerland-switzerland-zermatt-tourism-9571/camera",
    "stream_type": "UNKNOWN",
    "source_website": "https://www.myswitzerland.com/",
    "status": "unknown"
  },
  {
    "id": "seed-09572",
    "camera_name": "Interlaken Road Watch Cam",
    "latitude": 46.603536,
    "longitude": 7.826084,
    "country": "Switzerland",
    "state_or_region": "Switzerland",
    "city": "Interlaken",
    "category": "traffic",
    "stream_url": "https://seedcams.us-webcam-monitor.local/switzerland-switzerland-interlaken-traffic-9572/video.mjpg",
    "stream_type": "MJPEG",
    "source_website": "https://www.astra.admin.ch/",
    "status": "unknown"
  },
  {
    "id": "seed-09573",
    "camera_name": "Zurich Traffic Camera",
    "latitude": 47.332777,
    "longitude": 8.516281,
    "country": "Switzerland",
    "state_or_region": "Switzerland",
    "city": "Zurich",
    "category": "traffic",
    "stream_url": "https://seedcams.us-webcam-monitor.local/switzerland-switzerland-zurich-traffic-9573/master.m3u8",
    "stream_type": "HLS",
    "source_website": "https://www.astra.admin.ch/",
    "status": "unknown"
  },
  {
    "id": "seed-09574",
    "camera_name": "Lucerne Downtown Cam",
    "latitude": 47.102748,
    "longitude": 8.272524,
    "country": "Switzerland",
    "state_or_region": "Switzerland",
    "city": "Lucerne",
    "category": "city",
    "stream_url": "https://seedcams.us-webcam-monitor.local/switzerland-switzerland-lucerne-city-9574/webcam",
    "stream_type": "EMBED",
    "source_website": "https://www.skylinewebcams.com/",
    "status": "unknown"
  },
  {
    "id": "seed-09575",
    "camera_name": "Zermatt Intersection Cam",
    "latitude": 45.993881,
    "longitude": 7.724131,
    "country": "Switzerland",
    "state_or_region": "Switzerland",
    "city": "Zermatt",
    "category": "town",
    "stream_url": "https://seedcams.us-webcam-monitor.local/switzerland-switzerland-zermatt-town-9575/camera",
    "stream_type": "UNKNOWN",
    "source_website": "https://www.earthcam.com/",
    "status": "unknown"
  },
  {
    "id": "seed-09576",
    "camera_name": "Interlaken Road Watch Cam",
    "latitude": 46.695587,
    "longitude": 7.882102,
    "country": "Switzerland",
    "state_or_region": "Switzerland",
    "city": "Interlaken",
    "category": "traffic",
    "stream_url": "https://seedcams.us-webcam-monitor.local/switzerland-switzerland-interlaken-traffic-9576/camera",
    "stream_type": "UNKNOWN",
    "source_website": "https://www.astra.admin.ch/",
    "status": "unknown"
  },
  {
    "id": "seed-09577",
    "camera_name": "Zurich Tourism Cam",
    "latitude": 47.311119,
    "longitude": 8.531527,
    "country": "Switzerland",
    "state_or_region": "Switzerland",
    "city": "Zurich",
    "category": "tourism",
    "stream_url": "https://seedcams.us-webcam-monitor.local/switzerland-switzerland-zurich-tourism-9577/master.m3u8",
    "stream_type": "HLS",
    "source_website": "https://www.myswitzerland.com/",
    "status": "unknown"
  },
  {
    "id": "seed-09578",
    "camera_name": "Lucerne Highway Camera",
    "latitude": 47.055662,
    "longitude": 8.344702,
    "country": "Switzerland",
    "state_or_region": "Switzerland",
    "city": "Lucerne",
    "category": "traffic",
    "stream_url": "https://seedcams.us-webcam-monitor.local/switzerland-switzerland-lucerne-traffic-9578/camera",
    "stream_type": "UNKNOWN",
    "source_website": "https://www.astra.admin.ch/",
    "status": "unknown"
  },
  {
    "id": "seed-09579",
    "camera_name": "Zermatt City Center Webcam",
    "latitude": 45.946752,
    "longitude": 7.750386,
    "country": "Switzerland",
    "state_or_region": "Switzerland",
    "city": "Zermatt",
    "category": "city",
    "stream_url": "https://seedcams.us-webcam-monitor.local/switzerland-switzerland-zermatt-city-9579/snapshot.jpg",
    "stream_type": "IMAGE",
    "source_website": "https://www.earthcam.com/",
    "status": "unknown"
  },
  {
    "id": "seed-09580",
    "camera_name": "Interlaken Scenic Cam",
    "latitude": 46.738972,
    "longitude": 7.84233,
    "country": "Switzerland",
    "state_or_region": "Switzerland",
    "city": "Interlaken",
    "category": "park",
    "stream_url": "https://seedcams.us-webcam-monitor.local/switzerland-switzerland-interlaken-park-9580/camera",
    "stream_type": "UNKNOWN",
    "source_website": "https://www.explore.org/",
    "status": "unknown"
  },
  {
    "id": "seed-09581",
    "camera_name": "Zurich Park Webcam",
    "latitude": 47.297678,
    "longitude": 8.573207,
    "country": "Switzerland",
    "state_or_region": "Switzerland",
    "city": "Zurich",
    "category": "park",
    "stream_url": "https://seedcams.us-webcam-monitor.local/switzerland-switzerland-zurich-park-9581/webcam",
    "stream_type": "EMBED",
    "source_website": "https://www.nps.gov/",
    "status": "unknown"
  },
  {
    "id": "seed-09582",
    "camera_name": "Lucerne Snow Cam",
    "latitude": 46.964249,
    "longitude": 8.262548,
    "country": "Switzerland",
    "state_or_region": "Switzerland",
    "city": "Lucerne",
    "category": "ski",
    "stream_url": "https://seedcams.us-webcam-monitor.local/switzerland-switzerland-lucerne-ski-9582/master.m3u8",
    "stream_type": "HLS",
    "source_website": "https://www.matterhornparadise.ch/",
    "status": "unknown"
  },
  {
    "id": "seed-09583",
    "camera_name": "Zermatt Sky Cam",
    "latitude": 46.086943,
    "longitude": 7.826442,
    "country": "Switzerland",
    "state_or_region": "Switzerland",
    "city": "Zermatt",
    "category": "weather",
    "stream_url": "https://seedcams.us-webcam-monitor.local/switzerland-switzerland-zermatt-weather-9583/snapshot.jpg",
    "stream_type": "IMAGE",
    "source_website": "https://weather.gov/",
    "status": "unknown"
  },
  {
    "id": "seed-09584",
    "camera_name": "Interlaken Road Watch Cam",
    "latitude": 46.609108,
    "longitude": 7.851111,
    "country": "Switzerland",
    "state_or_region": "Switzerland",
    "city": "Interlaken",
    "category": "traffic",
    "stream_url": "https://seedcams.us-webcam-monitor.local/switzerland-switzerland-interlaken-traffic-9584/snapshot.jpg",
    "stream_type": "IMAGE",
    "source_website": "https://www.astra.admin.ch/",
    "status": "unknown"
  },
  {
    "id": "seed-09585",
    "camera_name": "Zurich Weather Cam",
    "latitude": 47.374055,
    "longitude": 8.589623,
    "country": "Switzerland",
    "state_or_region": "Switzerland",
    "city": "Zurich",
    "category": "weather",
    "stream_url": "https://seedcams.us-webcam-monitor.local/switzerland-switzerland-zurich-weather-9585/camera",
    "stream_type": "UNKNOWN",
    "source_website": "https://weather.gov/",
    "status": "unknown"
  },
  {
    "id": "seed-09586",
    "camera_name": "Lucerne Landmark Webcam",
    "latitude": 46.994164,
    "longitude": 8.357958,
    "country": "Switzerland",
    "state_or_region": "Switzerland",
    "city": "Lucerne",
    "category": "tourism",
    "stream_url": "https://seedcams.us-webcam-monitor.local/switzerland-switzerland-lucerne-tourism-9586/master.m3u8",
    "stream_type": "HLS",
    "source_website": "https://www.myswitzerland.com/",
    "status": "unknown"
  },
  {
    "id": "seed-09587",
    "camera_name": "Zermatt Boardwalk Cam",
    "latitude": 46.055041,
    "longitude": 7.819788,
    "country": "Switzerland",
    "state_or_region": "Switzerland",
    "city": "Zermatt",
    "category": "tourism",
    "stream_url": "https://seedcams.us-webcam-monitor.local/switzerland-switzerland-zermatt-tourism-9587/snapshot.jpg",
    "stream_type": "IMAGE",
    "source_website": "https://www.myswitzerland.com/",
    "status": "unknown"
  },
  {
    "id": "seed-09588",
    "camera_name": "Interlaken Live View Cam",
    "latitude": 46.640851,
    "longitude": 7.878309,
    "country": "Switzerland",
    "state_or_region": "Switzerland",
    "city": "Interlaken",
    "category": "tourism",
    "stream_url": "https://seedcams.us-webcam-monitor.local/switzerland-switzerland-interlaken-tourism-9588/webcam",
    "stream_type": "EMBED",
    "source_website": "https://www.myswitzerland.com/",
    "status": "unknown"
  },
  {
    "id": "seed-09589",
    "camera_name": "Zurich Ski Resort Cam",
    "latitude": 47.3521,
    "longitude": 8.625114,
    "country": "Switzerland",
    "state_or_region": "Switzerland",
    "city": "Zurich",
    "category": "ski",
    "stream_url": "https://seedcams.us-webcam-monitor.local/switzerland-switzerland-zurich-ski-9589/master.m3u8",
    "stream_type": "HLS",
    "source_website": "https://www.matterhornparadise.ch/",
    "status": "unknown"
  },
  {
    "id": "seed-09590",
    "camera_name": "Lucerne Highway Camera",
    "latitude": 47.125913,
    "longitude": 8.269351,
    "country": "Switzerland",
    "state_or_region": "Switzerland",
    "city": "Lucerne",
    "category": "traffic",
    "stream_url": "https://seedcams.us-webcam-monitor.local/switzerland-switzerland-lucerne-traffic-9590/snapshot.jpg",
    "stream_type": "IMAGE",
    "source_website": "https://www.astra.admin.ch/",
    "status": "unknown"
  },
  {
    "id": "seed-09591",
    "camera_name": "Zermatt City Center Webcam",
    "latitude": 46.067694,
    "longitude": 7.774954,
    "country": "Switzerland",
    "state_or_region": "Switzerland",
    "city": "Zermatt",
    "category": "city",
    "stream_url": "https://seedcams.us-webcam-monitor.local/switzerland-switzerland-zermatt-city-9591/master.m3u8",
    "stream_type": "HLS",
    "source_website": "https://www.earthcam.com/",
    "status": "unknown"
  },
  {
    "id": "seed-09592",
    "camera_name": "Interlaken Main Street Cam",
    "latitude": 46.641533,
    "longitude": 7.828696,
    "country": "Switzerland",
    "state_or_region": "Switzerland",
    "city": "Interlaken",
    "category": "city",
    "stream_url": "https://seedcams.us-webcam-monitor.local/switzerland-switzerland-interlaken-city-9592/snapshot.jpg",
    "stream_type": "IMAGE",
    "source_website": "https://www.skylinewebcams.com/",
    "status": "unknown"
  },
  {
    "id": "seed-09593",
    "camera_name": "Zurich Town Square Cam",
    "latitude": 47.32024,
    "longitude": 8.612752,
    "country": "Switzerland",
    "state_or_region": "Switzerland",
    "city": "Zurich",
    "category": "town",
    "stream_url": "https://seedcams.us-webcam-monitor.local/switzerland-switzerland-zurich-town-9593/webcam",
    "stream_type": "EMBED",
    "source_website": "https://www.earthcam.com/",
    "status": "unknown"
  },
  {
    "id": "seed-09594",
    "camera_name": "Lucerne Highway Camera",
    "latitude": 47.104026,
    "longitude": 8.262874,
    "country": "Switzerland",
    "state_or_region": "Switzerland",
    "city": "Lucerne",
    "category": "traffic",
    "stream_url": "https://seedcams.us-webcam-monitor.local/switzerland-switzerland-lucerne-traffic-9594/video.mjpg",
    "stream_type": "MJPEG",
    "source_website": "https://www.astra.admin.ch/",
    "status": "unknown"
  },
  {
    "id": "seed-09595",
    "camera_name": "Zermatt Base Area Cam",
    "latitude": 46.100211,
    "longitude": 7.782013,
    "country": "Switzerland",
    "state_or_region": "Switzerland",
    "city": "Zermatt",
    "category": "ski",
    "stream_url": "https://seedcams.us-webcam-monitor.local/switzerland-switzerland-zermatt-ski-9595/master.m3u8",
    "stream_type": "HLS",
    "source_website": "https://www.matterhornparadise.ch/",
    "status": "unknown"
  },
  {
    "id": "seed-09596",
    "camera_name": "Interlaken Conditions Cam",
    "latitude": 46.724529,
    "longitude": 7.920264,
    "country": "Switzerland",
    "state_or_region": "Switzerland",
    "city": "Interlaken",
    "category": "weather",
    "stream_url": "https://seedcams.us-webcam-monitor.local/switzerland-switzerland-interlaken-weather-9596/video.mjpg",
    "stream_type": "MJPEG",
    "source_website": "https://www.weatherbug.com/",
    "status": "unknown"
  },
  {
    "id": "seed-09597",
    "camera_name": "Zurich Park Webcam",
    "latitude": 47.42157,
    "longitude": 8.510131,
    "country": "Switzerland",
    "state_or_region": "Switzerland",
    "city": "Zurich",
    "category": "park",
    "stream_url": "https://seedcams.us-webcam-monitor.local/switzerland-switzerland-zurich-park-9597/master.m3u8",
    "stream_type": "HLS",
    "source_website": "https://www.nps.gov/",
    "status": "unknown"
  },
  {
    "id": "seed-09598",
    "camera_name": "Lucerne Downtown Cam",
    "latitude": 47.008108,
    "longitude": 8.369496,
    "country": "Switzerland",
    "state_or_region": "Switzerland",
    "city": "Lucerne",
    "category": "city",
    "stream_url": "https://seedcams.us-webcam-monitor.local/switzerland-switzerland-lucerne-city-9598/snapshot.jpg",
    "stream_type": "IMAGE",
    "source_website": "https://www.skylinewebcams.com/",
    "status": "unknown"
  },
  {
    "id": "seed-09599",
    "camera_name": "Zermatt Intersection Cam",
    "latitude": 46.034246,
    "longitude": 7.714135,
    "country": "Switzerland",
    "state_or_region": "Switzerland",
    "city": "Zermatt",
    "category": "town",
    "stream_url": "https://seedcams.us-webcam-monitor.local/switzerland-switzerland-zermatt-town-9599/camera",
    "stream_type": "UNKNOWN",
    "source_website": "https://www.earthcam.com/",
    "status": "unknown"
  },
  {
    "id": "seed-09600",
    "camera_name": "Interlaken Live View Cam",
    "latitude": 46.652016,
    "longitude": 7.834356,
    "country": "Switzerland",
    "state_or_region": "Switzerland",
    "city": "Interlaken",
    "category": "tourism",
    "stream_url": "https://seedcams.us-webcam-monitor.local/switzerland-switzerland-interlaken-tourism-9600/master.m3u8",
    "stream_type": "HLS",
    "source_website": "https://www.myswitzerland.com/",
    "status": "unknown"
  },
  {
    "id": "seed-09601",
    "camera_name": "Zurich Tourism Cam",
    "latitude": 47.448367,
    "longitude": 8.493933,
    "country": "Switzerland",
    "state_or_region": "Switzerland",
    "city": "Zurich",
    "category": "tourism",
    "stream_url": "https://seedcams.us-webcam-monitor.local/switzerland-switzerland-zurich-tourism-9601/master.m3u8",
    "stream_type": "HLS",
    "source_website": "https://www.myswitzerland.com/",
    "status": "unknown"
  },
  {
    "id": "seed-09602",
    "camera_name": "Lucerne Main Street Cam",
    "latitude": 47.076185,
    "longitude": 8.271355,
    "country": "Switzerland",
    "state_or_region": "Switzerland",
    "city": "Lucerne",
    "category": "town",
    "stream_url": "https://seedcams.us-webcam-monitor.local/switzerland-switzerland-lucerne-town-9602/video.mjpg",
    "stream_type": "MJPEG",
    "source_website": "https://www.visit-europe.com/",
    "status": "unknown"
  },
  {
    "id": "seed-09603",
    "camera_name": "Zermatt Boardwalk Cam",
    "latitude": 46.01968,
    "longitude": 7.662391,
    "country": "Switzerland",
    "state_or_region": "Switzerland",
    "city": "Zermatt",
    "category": "tourism",
    "stream_url": "https://seedcams.us-webcam-monitor.local/switzerland-switzerland-zermatt-tourism-9603/snapshot.jpg",
    "stream_type": "IMAGE",
    "source_website": "https://www.myswitzerland.com/",
    "status": "unknown"
  },
  {
    "id": "seed-09604",
    "camera_name": "Interlaken Village Cam",
    "latitude": 46.682415,
    "longitude": 7.893094,
    "country": "Switzerland",
    "state_or_region": "Switzerland",
    "city": "Interlaken",
    "category": "town",
    "stream_url": "https://seedcams.us-webcam-monitor.local/switzerland-switzerland-interlaken-town-9604/camera",
    "stream_type": "UNKNOWN",
    "source_website": "https://www.visit-europe.com/",
    "status": "unknown"
  },
  {
    "id": "seed-09605",
    "camera_name": "Zurich Skyline Cam",
    "latitude": 47.431405,
    "longitude": 8.605366,
    "country": "Switzerland",
    "state_or_region": "Switzerland",
    "city": "Zurich",
    "category": "city",
    "stream_url": "https://seedcams.us-webcam-monitor.local/switzerland-switzerland-zurich-city-9605/webcam",
    "stream_type": "EMBED",
    "source_website": "https://www.earthcam.com/",
    "status": "unknown"
  },
  {
    "id": "seed-09606",
    "camera_name": "Lucerne Snow Cam",
    "latitude": 47.055804,
    "longitude": 8.277193,
    "country": "Switzerland",
    "state_or_region": "Switzerland",
    "city": "Lucerne",
    "category": "ski",
    "stream_url": "https://seedcams.us-webcam-monitor.local/switzerland-switzerland-lucerne-ski-9606/master.m3u8",
    "stream_type": "HLS",
    "source_website": "https://www.matterhornparadise.ch/",
    "status": "unknown"
  },
  {
    "id": "seed-09607",
    "camera_name": "Zermatt Sky Cam",
    "latitude": 45.950773,
    "longitude": 7.677031,
    "country": "Switzerland",
    "state_or_region": "Switzerland",
    "city": "Zermatt",
    "category": "weather",
    "stream_url": "https://seedcams.us-webcam-monitor.local/switzerland-switzerland-zermatt-weather-9607/snapshot.jpg",
    "stream_type": "IMAGE",
    "source_website": "https://weather.gov/",
    "status": "unknown"
  },
  {
    "id": "seed-09608",
    "camera_name": "Interlaken Lift Cam",
    "latitude": 46.619123,
    "longitude": 7.870081,
    "country": "Switzerland",
    "state_or_region": "Switzerland",
    "city": "Interlaken",
    "category": "ski",
    "stream_url": "https://seedcams.us-webcam-monitor.local/switzerland-switzerland-interlaken-ski-9608/master.m3u8",
    "stream_type": "HLS",
    "source_website": "https://www.matterhornparadise.ch/",
    "status": "unknown"
  },
  {
    "id": "seed-09609",
    "camera_name": "Zurich Ski Resort Cam",
    "latitude": 47.432112,
    "longitude": 8.529556,
    "country": "Switzerland",
    "state_or_region": "Switzerland",
    "city": "Zurich",
    "category": "ski",
    "stream_url": "https://seedcams.us-webcam-monitor.local/switzerland-switzerland-zurich-ski-9609/snapshot.jpg",
    "stream_type": "IMAGE",
    "source_website": "https://www.matterhornparadise.ch/",
    "status": "unknown"
  },
  {
    "id": "seed-09610",
    "camera_name": "Lucerne Marina Cam",
    "latitude": 46.970527,
    "longitude": 8.329211,
    "country": "Switzerland",
    "state_or_region": "Switzerland",
    "city": "Lucerne",
    "category": "harbor",
    "stream_url": "https://seedcams.us-webcam-monitor.local/switzerland-switzerland-lucerne-harbor-9610/snapshot.jpg",
    "stream_type": "IMAGE",
    "source_website": "https://www.porttechnology.org/",
    "status": "unknown"
  },
  {
    "id": "seed-09611",
    "camera_name": "Zermatt City Center Webcam",
    "latitude": 46.091643,
    "longitude": 7.688563,
    "country": "Switzerland",
    "state_or_region": "Switzerland",
    "city": "Zermatt",
    "category": "city",
    "stream_url": "https://seedcams.us-webcam-monitor.local/switzerland-switzerland-zermatt-city-9611/snapshot.jpg",
    "stream_type": "IMAGE",
    "source_website": "https://www.earthcam.com/",
    "status": "unknown"
  },
  {
    "id": "seed-09612",
    "camera_name": "Interlaken Live View Cam",
    "latitude": 46.700136,
    "longitude": 7.889956,
    "country": "Switzerland",
    "state_or_region": "Switzerland",
    "city": "Interlaken",
    "category": "tourism",
    "stream_url": "https://seedcams.us-webcam-monitor.local/switzerland-switzerland-interlaken-tourism-9612/webcam",
    "stream_type": "EMBED",
    "source_website": "https://www.myswitzerland.com/",
    "status": "unknown"
  },
  {
    "id": "seed-09613",
    "camera_name": "Zurich Weather Cam",
    "latitude": 47.442541,
    "longitude": 8.541019,
    "country": "Switzerland",
    "state_or_region": "Switzerland",
    "city": "Zurich",
    "category": "weather",
    "stream_url": "https://seedcams.us-webcam-monitor.local/switzerland-switzerland-zurich-weather-9613/snapshot.jpg",
    "stream_type": "IMAGE",
    "source_website": "https://weather.gov/",
    "status": "unknown"
  },
  {
    "id": "seed-09614",
    "camera_name": "Lucerne Main Street Cam",
    "latitude": 47.103039,
    "longitude": 8.294983,
    "country": "Switzerland",
    "state_or_region": "Switzerland",
    "city": "Lucerne",
    "category": "town",
    "stream_url": "https://seedcams.us-webcam-monitor.local/switzerland-switzerland-lucerne-town-9614/snapshot.jpg",
    "stream_type": "IMAGE",
    "source_website": "https://www.visit-europe.com/",
    "status": "unknown"
  },
  {
    "id": "seed-09615",
    "camera_name": "Zermatt Boardwalk Cam",
    "latitude": 45.95172,
    "longitude": 7.772203,
    "country": "Switzerland",
    "state_or_region": "Switzerland",
    "city": "Zermatt",
    "category": "tourism",
    "stream_url": "https://seedcams.us-webcam-monitor.local/switzerland-switzerland-zermatt-tourism-9615/webcam",
    "stream_type": "EMBED",
    "source_website": "https://www.myswitzerland.com/",
    "status": "unknown"
  },
  {
    "id": "seed-09616",
    "camera_name": "Interlaken Live View Cam",
    "latitude": 46.737822,
    "longitude": 7.916571,
    "country": "Switzerland",
    "state_or_region": "Switzerland",
    "city": "Interlaken",
    "category": "tourism",
    "stream_url": "https://seedcams.us-webcam-monitor.local/switzerland-switzerland-interlaken-tourism-9616/master.m3u8",
    "stream_type": "HLS",
    "source_website": "https://www.myswitzerland.com/",
    "status": "unknown"
  },
  {
    "id": "seed-09617",
    "camera_name": "Zurich Tourism Cam",
    "latitude": 47.435263,
    "longitude": 8.526521,
    "country": "Switzerland",
    "state_or_region": "Switzerland",
    "city": "Zurich",
    "category": "tourism",
    "stream_url": "https://seedcams.us-webcam-monitor.local/switzerland-switzerland-zurich-tourism-9617/snapshot.jpg",
    "stream_type": "IMAGE",
    "source_website": "https://www.myswitzerland.com/",
    "status": "unknown"
  },
  {
    "id": "seed-09618",
    "camera_name": "Lucerne Highway Camera",
    "latitude": 47.010145,
    "longitude": 8.29946,
    "country": "Switzerland",
    "state_or_region": "Switzerland",
    "city": "Lucerne",
    "category": "traffic",
    "stream_url": "https://seedcams.us-webcam-monitor.local/switzerland-switzerland-lucerne-traffic-9618/video.mjpg",
    "stream_type": "MJPEG",
    "source_website": "https://www.astra.admin.ch/",
    "status": "unknown"
  },
  {
    "id": "seed-09619",
    "camera_name": "Zermatt Intersection Cam",
    "latitude": 46.109684,
    "longitude": 7.708005,
    "country": "Switzerland",
    "state_or_region": "Switzerland",
    "city": "Zermatt",
    "category": "town",
    "stream_url": "https://seedcams.us-webcam-monitor.local/switzerland-switzerland-zermatt-town-9619/camera",
    "stream_type": "UNKNOWN",
    "source_website": "https://www.earthcam.com/",
    "status": "unknown"
  },
  {
    "id": "seed-09620",
    "camera_name": "Interlaken Lift Cam",
    "latitude": 46.748841,
    "longitude": 7.943235,
    "country": "Switzerland",
    "state_or_region": "Switzerland",
    "city": "Interlaken",
    "category": "ski",
    "stream_url": "https://seedcams.us-webcam-monitor.local/switzerland-switzerland-interlaken-ski-9620/snapshot.jpg",
    "stream_type": "IMAGE",
    "source_website": "https://www.matterhornparadise.ch/",
    "status": "unknown"
  },
  {
    "id": "seed-09621",
    "camera_name": "Zurich Traffic Camera",
    "latitude": 47.466184,
    "longitude": 8.586676,
    "country": "Switzerland",
    "state_or_region": "Switzerland",
    "city": "Zurich",
    "category": "traffic",
    "stream_url": "https://seedcams.us-webcam-monitor.local/switzerland-switzerland-zurich-traffic-9621/camera",
    "stream_type": "UNKNOWN",
    "source_website": "https://www.astra.admin.ch/",
    "status": "unknown"
  },
  {
    "id": "seed-09622",
    "camera_name": "Lucerne Marina Cam",
    "latitude": 47.133488,
    "longitude": 8.265389,
    "country": "Switzerland",
    "state_or_region": "Switzerland",
    "city": "Lucerne",
    "category": "harbor",
    "stream_url": "https://seedcams.us-webcam-monitor.local/switzerland-switzerland-lucerne-harbor-9622/snapshot.jpg",
    "stream_type": "IMAGE",
    "source_website": "https://www.porttechnology.org/",
    "status": "unknown"
  },
  {
    "id": "seed-09623",
    "camera_name": "Zermatt Sky Cam",
    "latitude": 46.071863,
    "longitude": 7.783655,
    "country": "Switzerland",
    "state_or_region": "Switzerland",
    "city": "Zermatt",
    "category": "weather",
    "stream_url": "https://seedcams.us-webcam-monitor.local/switzerland-switzerland-zermatt-weather-9623/video.mjpg",
    "stream_type": "MJPEG",
    "source_website": "https://weather.gov/",
    "status": "unknown"
  },
  {
    "id": "seed-09624",
    "camera_name": "Interlaken Live View Cam",
    "latitude": 46.742504,
    "longitude": 7.796993,
    "country": "Switzerland",
    "state_or_region": "Switzerland",
    "city": "Interlaken",
    "category": "tourism",
    "stream_url": "https://seedcams.us-webcam-monitor.local/switzerland-switzerland-interlaken-tourism-9624/webcam",
    "stream_type": "EMBED",
    "source_website": "https://www.myswitzerland.com/",
    "status": "unknown"
  },
  {
    "id": "seed-09625",
    "camera_name": "Zurich Ski Resort Cam",
    "latitude": 47.37521,
    "longitude": 8.62266,
    "country": "Switzerland",
    "state_or_region": "Switzerland",
    "city": "Zurich",
    "category": "ski",
    "stream_url": "https://seedcams.us-webcam-monitor.local/switzerland-switzerland-zurich-ski-9625/snapshot.jpg",
    "stream_type": "IMAGE",
    "source_website": "https://www.matterhornparadise.ch/",
    "status": "unknown"
  },
  {
    "id": "seed-09626",
    "camera_name": "Lucerne Storm Watch Cam",
    "latitude": 47.008636,
    "longitude": 8.279894,
    "country": "Switzerland",
    "state_or_region": "Switzerland",
    "city": "Lucerne",
    "category": "weather",
    "stream_url": "https://seedcams.us-webcam-monitor.local/switzerland-switzerland-lucerne-weather-9626/master.m3u8",
    "stream_type": "HLS",
    "source_website": "https://www.weatherbug.com/",
    "status": "unknown"
  },
  {
    "id": "seed-09627",
    "camera_name": "Zermatt Sky Cam",
    "latitude": 46.015912,
    "longitude": 7.828702,
    "country": "Switzerland",
    "state_or_region": "Switzerland",
    "city": "Zermatt",
    "category": "weather",
    "stream_url": "https://seedcams.us-webcam-monitor.local/switzerland-switzerland-zermatt-weather-9627/video.mjpg",
    "stream_type": "MJPEG",
    "source_website": "https://weather.gov/",
    "status": "unknown"
  },
  {
    "id": "seed-09628",
    "camera_name": "Interlaken Village Cam",
    "latitude": 46.634194,
    "longitude": 7.922254,
    "country": "Switzerland",
    "state_or_region": "Switzerland",
    "city": "Interlaken",
    "category": "town",
    "stream_url": "https://seedcams.us-webcam-monitor.local/switzerland-switzerland-interlaken-town-9628/video.mjpg",
    "stream_type": "MJPEG",
    "source_website": "https://www.visit-europe.com/",
    "status": "unknown"
  },
  {
    "id": "seed-09629",
    "camera_name": "Zurich Harbor Cam",
    "latitude": 47.28748,
    "longitude": 8.614543,
    "country": "Switzerland",
    "state_or_region": "Switzerland",
    "city": "Zurich",
    "category": "harbor",
    "stream_url": "https://seedcams.us-webcam-monitor.local/switzerland-switzerland-zurich-harbor-9629/camera",
    "stream_type": "UNKNOWN",
    "source_website": "https://www.marinetraffic.com/",
    "status": "unknown"
  },
  {
    "id": "seed-09630",
    "camera_name": "Lucerne Storm Watch Cam",
    "latitude": 47.121929,
    "longitude": 8.390663,
    "country": "Switzerland",
    "state_or_region": "Switzerland",
    "city": "Lucerne",
    "category": "weather",
    "stream_url": "https://seedcams.us-webcam-monitor.local/switzerland-switzerland-lucerne-weather-9630/camera",
    "stream_type": "UNKNOWN",
    "source_website": "https://www.weatherbug.com/",
    "status": "unknown"
  },
  {
    "id": "seed-09631",
    "camera_name": "Zermatt Boardwalk Cam",
    "latitude": 45.959599,
    "longitude": 7.826236,
    "country": "Switzerland",
    "state_or_region": "Switzerland",
    "city": "Zermatt",
    "category": "tourism",
    "stream_url": "https://seedcams.us-webcam-monitor.local/switzerland-switzerland-zermatt-tourism-9631/snapshot.jpg",
    "stream_type": "IMAGE",
    "source_website": "https://www.myswitzerland.com/",
    "status": "unknown"
  },
  {
    "id": "seed-09632",
    "camera_name": "Interlaken Lift Cam",
    "latitude": 46.723519,
    "longitude": 7.912635,
    "country": "Switzerland",
    "state_or_region": "Switzerland",
    "city": "Interlaken",
    "category": "ski",
    "stream_url": "https://seedcams.us-webcam-monitor.local/switzerland-switzerland-interlaken-ski-9632/snapshot.jpg",
    "stream_type": "IMAGE",
    "source_website": "https://www.matterhornparadise.ch/",
    "status": "unknown"
  },
  {
    "id": "seed-09633",
    "camera_name": "Zurich Ski Resort Cam",
    "latitude": 47.407905,
    "longitude": 8.610232,
    "country": "Switzerland",
    "state_or_region": "Switzerland",
    "city": "Zurich",
    "category": "ski",
    "stream_url": "https://seedcams.us-webcam-monitor.local/switzerland-switzerland-zurich-ski-9633/snapshot.jpg",
    "stream_type": "IMAGE",
    "source_website": "https://www.matterhornparadise.ch/",
    "status": "unknown"
  },
  {
    "id": "seed-09634",
    "camera_name": "Lucerne Snow Cam",
    "latitude": 47.060158,
    "longitude": 8.397676,
    "country": "Switzerland",
    "state_or_region": "Switzerland",
    "city": "Lucerne",
    "category": "ski",
    "stream_url": "https://seedcams.us-webcam-monitor.local/switzerland-switzerland-lucerne-ski-9634/camera",
    "stream_type": "UNKNOWN",
    "source_website": "https://www.matterhornparadise.ch/",
    "status": "unknown"
  },
  {
    "id": "seed-09635",
    "camera_name": "Zermatt Boardwalk Cam",
    "latitude": 46.063069,
    "longitude": 7.775221,
    "country": "Switzerland",
    "state_or_region": "Switzerland",
    "city": "Zermatt",
    "category": "tourism",
    "stream_url": "https://seedcams.us-webcam-monitor.local/switzerland-switzerland-zermatt-tourism-9635/camera",
    "stream_type": "UNKNOWN",
    "source_website": "https://www.myswitzerland.com/",
    "status": "unknown"
  },
  {
    "id": "seed-09636",
    "camera_name": "Interlaken Lift Cam",
    "latitude": 46.638556,
    "longitude": 7.939723,
    "country": "Switzerland",
    "state_or_region": "Switzerland",
    "city": "Interlaken",
    "category": "ski",
    "stream_url": "https://seedcams.us-webcam-monitor.local/switzerland-switzerland-interlaken-ski-9636/snapshot.jpg",
    "stream_type": "IMAGE",
    "source_website": "https://www.matterhornparadise.ch/",
    "status": "unknown"
  },
  {
    "id": "seed-09637",
    "camera_name": "Zurich Tourism Cam",
    "latitude": 47.428733,
    "longitude": 8.485432,
    "country": "Switzerland",
    "state_or_region": "Switzerland",
    "city": "Zurich",
    "category": "tourism",
    "stream_url": "https://seedcams.us-webcam-monitor.local/switzerland-switzerland-zurich-tourism-9637/master.m3u8",
    "stream_type": "HLS",
    "source_website": "https://www.myswitzerland.com/",
    "status": "unknown"
  },
  {
    "id": "seed-09638",
    "camera_name": "Lucerne Snow Cam",
    "latitude": 47.015322,
    "longitude": 8.316672,
    "country": "Switzerland",
    "state_or_region": "Switzerland",
    "city": "Lucerne",
    "category": "ski",
    "stream_url": "https://seedcams.us-webcam-monitor.local/switzerland-switzerland-lucerne-ski-9638/snapshot.jpg",
    "stream_type": "IMAGE",
    "source_website": "https://www.matterhornparadise.ch/",
    "status": "unknown"
  },
  {
    "id": "seed-09639",
    "camera_name": "Zermatt City Center Webcam",
    "latitude": 46.103935,
    "longitude": 7.803816,
    "country": "Switzerland",
    "state_or_region": "Switzerland",
    "city": "Zermatt",
    "category": "city",
    "stream_url": "https://seedcams.us-webcam-monitor.local/switzerland-switzerland-zermatt-city-9639/snapshot.jpg",
    "stream_type": "IMAGE",
    "source_website": "https://www.earthcam.com/",
    "status": "unknown"
  },
  {
    "id": "seed-09640",
    "camera_name": "Interlaken Conditions Cam",
    "latitude": 46.604613,
    "longitude": 7.946091,
    "country": "Switzerland",
    "state_or_region": "Switzerland",
    "city": "Interlaken",
    "category": "weather",
    "stream_url": "https://seedcams.us-webcam-monitor.local/switzerland-switzerland-interlaken-weather-9640/video.mjpg",
    "stream_type": "MJPEG",
    "source_website": "https://www.weatherbug.com/",
    "status": "unknown"
  },
  {
    "id": "seed-09641",
    "camera_name": "Zurich Skyline Cam",
    "latitude": 47.30537,
    "longitude": 8.51558,
    "country": "Switzerland",
    "state_or_region": "Switzerland",
    "city": "Zurich",
    "category": "city",
    "stream_url": "https://seedcams.us-webcam-monitor.local/switzerland-switzerland-zurich-city-9641/webcam",
    "stream_type": "EMBED",
    "source_website": "https://www.earthcam.com/",
    "status": "unknown"
  },
  {
    "id": "seed-09642",
    "camera_name": "Lucerne Snow Cam",
    "latitude": 47.044266,
    "longitude": 8.313891,
    "country": "Switzerland",
    "state_or_region": "Switzerland",
    "city": "Lucerne",
    "category": "ski",
    "stream_url": "https://seedcams.us-webcam-monitor.local/switzerland-switzerland-lucerne-ski-9642/webcam",
    "stream_type": "EMBED",
    "source_website": "https://www.matterhornparadise.ch/",
    "status": "unknown"
  },
  {
    "id": "seed-09643",
    "camera_name": "Zermatt Wildlife Cam",
    "latitude": 46.006314,
    "longitude": 7.710927,
    "country": "Switzerland",
    "state_or_region": "Switzerland",
    "city": "Zermatt",
    "category": "park",
    "stream_url": "https://seedcams.us-webcam-monitor.local/switzerland-switzerland-zermatt-park-9643/master.m3u8",
    "stream_type": "HLS",
    "source_website": "https://www.nps.gov/",
    "status": "unknown"
  },
  {
    "id": "seed-09644",
    "camera_name": "Interlaken Village Cam",
    "latitude": 46.666426,
    "longitude": 7.943272,
    "country": "Switzerland",
    "state_or_region": "Switzerland",
    "city": "Interlaken",
    "category": "town",
    "stream_url": "https://seedcams.us-webcam-monitor.local/switzerland-switzerland-interlaken-town-9644/video.mjpg",
    "stream_type": "MJPEG",
    "source_website": "https://www.visit-europe.com/",
    "status": "unknown"
  },
  {
    "id": "seed-09645",
    "camera_name": "Zurich Ski Resort Cam",
    "latitude": 47.440715,
    "longitude": 8.575287,
    "country": "Switzerland",
    "state_or_region": "Switzerland",
    "city": "Zurich",
    "category": "ski",
    "stream_url": "https://seedcams.us-webcam-monitor.local/switzerland-switzerland-zurich-ski-9645/master.m3u8",
    "stream_type": "HLS",
    "source_website": "https://www.matterhornparadise.ch/",
    "status": "unknown"
  },
  {
    "id": "seed-09646",
    "camera_name": "Lucerne Landmark Webcam",
    "latitude": 46.991868,
    "longitude": 8.225794,
    "country": "Switzerland",
    "state_or_region": "Switzerland",
    "city": "Lucerne",
    "category": "tourism",
    "stream_url": "https://seedcams.us-webcam-monitor.local/switzerland-switzerland-lucerne-tourism-9646/webcam",
    "stream_type": "EMBED",
    "source_website": "https://www.myswitzerland.com/",
    "status": "unknown"
  },
  {
    "id": "seed-09647",
    "camera_name": "Zermatt Base Area Cam",
    "latitude": 46.007577,
    "longitude": 7.744858,
    "country": "Switzerland",
    "state_or_region": "Switzerland",
    "city": "Zermatt",
    "category": "ski",
    "stream_url": "https://seedcams.us-webcam-monitor.local/switzerland-switzerland-zermatt-ski-9647/master.m3u8",
    "stream_type": "HLS",
    "source_website": "https://www.matterhornparadise.ch/",
    "status": "unknown"
  },
  {
    "id": "seed-09648",
    "camera_name": "Interlaken Road Watch Cam",
    "latitude": 46.621846,
    "longitude": 7.782825,
    "country": "Switzerland",
    "state_or_region": "Switzerland",
    "city": "Interlaken",
    "category": "traffic",
    "stream_url": "https://seedcams.us-webcam-monitor.local/switzerland-switzerland-interlaken-traffic-9648/snapshot.jpg",
    "stream_type": "IMAGE",
    "source_website": "https://www.astra.admin.ch/",
    "status": "unknown"
  },
  {
    "id": "seed-09649",
    "camera_name": "Zurich Skyline Cam",
    "latitude": 47.298296,
    "longitude": 8.490537,
    "country": "Switzerland",
    "state_or_region": "Switzerland",
    "city": "Zurich",
    "category": "city",
    "stream_url": "https://seedcams.us-webcam-monitor.local/switzerland-switzerland-zurich-city-9649/master.m3u8",
    "stream_type": "HLS",
    "source_website": "https://www.earthcam.com/",
    "status": "unknown"
  },
  {
    "id": "seed-09650",
    "camera_name": "Lucerne Landmark Webcam",
    "latitude": 47.092853,
    "longitude": 8.222609,
    "country": "Switzerland",
    "state_or_region": "Switzerland",
    "city": "Lucerne",
    "category": "tourism",
    "stream_url": "https://seedcams.us-webcam-monitor.local/switzerland-switzerland-lucerne-tourism-9650/webcam",
    "stream_type": "EMBED",
    "source_website": "https://www.myswitzerland.com/",
    "status": "unknown"
  },
  {
    "id": "seed-09651",
    "camera_name": "Vienna Weather Cam",
    "latitude": 48.172137,
    "longitude": 16.315813,
    "country": "Austria",
    "state_or_region": "Austria",
    "city": "Vienna",
    "category": "weather",
    "stream_url": "https://seedcams.us-webcam-monitor.local/austria-austria-vienna-weather-9651/master.m3u8",
    "stream_type": "HLS",
    "source_website": "https://weather.gov/",
    "status": "unknown"
  },
  {
    "id": "seed-09652",
    "camera_name": "Salzburg Main Street Cam",
    "latitude": 47.8484,
    "longitude": 13.101421,
    "country": "Austria",
    "state_or_region": "Austria",
    "city": "Salzburg",
    "category": "town",
    "stream_url": "https://seedcams.us-webcam-monitor.local/austria-austria-salzburg-town-9652/video.mjpg",
    "stream_type": "MJPEG",
    "source_website": "https://www.visit-europe.com/",
    "status": "unknown"
  },
  {
    "id": "seed-09653",
    "camera_name": "Innsbruck Sky Cam",
    "latitude": 47.278596,
    "longitude": 11.330352,
    "country": "Austria",
    "state_or_region": "Austria",
    "city": "Innsbruck",
    "category": "weather",
    "stream_url": "https://seedcams.us-webcam-monitor.local/austria-austria-innsbruck-weather-9653/snapshot.jpg",
    "stream_type": "IMAGE",
    "source_website": "https://weather.gov/",
    "status": "unknown"
  },
  {
    "id": "seed-09654",
    "camera_name": "Kitzbuhel Lift Cam",
    "latitude": 47.419842,
    "longitude": 12.412344,
    "country": "Austria",
    "state_or_region": "Austria",
    "city": "Kitzbuhel",
    "category": "ski",
    "stream_url": "https://seedcams.us-webcam-monitor.local/austria-austria-kitzbuhel-ski-9654/snapshot.jpg",
    "stream_type": "IMAGE",
    "source_website": "https://www.skiamade.com/",
    "status": "unknown"
  },
  {
    "id": "seed-09655",
    "camera_name": "Vienna Traffic Camera",
    "latitude": 48.149618,
    "longitude": 16.436269,
    "country": "Austria",
    "state_or_region": "Austria",
    "city": "Vienna",
    "category": "traffic",
    "stream_url": "https://seedcams.us-webcam-monitor.local/austria-austria-vienna-traffic-9655/snapshot.jpg",
    "stream_type": "IMAGE",
    "source_website": "https://www.asfinag.at/",
    "status": "unknown"
  },
  {
    "id": "seed-09656",
    "camera_name": "Salzburg Snow Cam",
    "latitude": 47.76401,
    "longitude": 13.143365,
    "country": "Austria",
    "state_or_region": "Austria",
    "city": "Salzburg",
    "category": "ski",
    "stream_url": "https://seedcams.us-webcam-monitor.local/austria-austria-salzburg-ski-9656/master.m3u8",
    "stream_type": "HLS",
    "source_website": "https://www.skiamade.com/",
    "status": "unknown"
  },
  {
    "id": "seed-09657",
    "camera_name": "Innsbruck City Center Webcam",
    "latitude": 47.358029,
    "longitude": 11.477122,
    "country": "Austria",
    "state_or_region": "Austria",
    "city": "Innsbruck",
    "category": "city",
    "stream_url": "https://seedcams.us-webcam-monitor.local/austria-austria-innsbruck-city-9657/webcam",
    "stream_type": "EMBED",
    "source_website": "https://www.earthcam.com/",
    "status": "unknown"
  },
  {
    "id": "seed-09658",
    "camera_name": "Kitzbuhel Conditions Cam",
    "latitude": 47.462622,
    "longitude": 12.31966,
    "country": "Austria",
    "state_or_region": "Austria",
    "city": "Kitzbuhel",
    "category": "weather",
    "stream_url": "https://seedcams.us-webcam-monitor.local/austria-austria-kitzbuhel-weather-9658/camera",
    "stream_type": "UNKNOWN",
    "source_website": "https://www.weatherbug.com/",
    "status": "unknown"
  },
  {
    "id": "seed-09659",
    "camera_name": "Vienna Traffic Camera",
    "latitude": 48.26395,
    "longitude": 16.432552,
    "country": "Austria",
    "state_or_region": "Austria",
    "city": "Vienna",
    "category": "traffic",
    "stream_url": "https://seedcams.us-webcam-monitor.local/austria-austria-vienna-traffic-9659/video.mjpg",
    "stream_type": "MJPEG",
    "source_website": "https://www.asfinag.at/",
    "status": "unknown"
  },
  {
    "id": "seed-09660",
    "camera_name": "Salzburg Downtown Cam",
    "latitude": 47.896147,
    "longitude": 13.1437,
    "country": "Austria",
    "state_or_region": "Austria",
    "city": "Salzburg",
    "category": "city",
    "stream_url": "https://seedcams.us-webcam-monitor.local/austria-austria-salzburg-city-9660/camera",
    "stream_type": "UNKNOWN",
    "source_website": "https://www.skylinewebcams.com/",
    "status": "unknown"
  },
  {
    "id": "seed-09661",
    "camera_name": "Innsbruck City Center Webcam",
    "latitude": 47.257,
    "longitude": 11.391988,
    "country": "Austria",
    "state_or_region": "Austria",
    "city": "Innsbruck",
    "category": "city",
    "stream_url": "https://seedcams.us-webcam-monitor.local/austria-austria-innsbruck-city-9661/webcam",
    "stream_type": "EMBED",
    "source_website": "https://www.earthcam.com/",
    "status": "unknown"
  },
  {
    "id": "seed-09662",
    "camera_name": "Kitzbuhel Main Street Cam",
    "latitude": 47.459712,
    "longitude": 12.469293,
    "country": "Austria",
    "state_or_region": "Austria",
    "city": "Kitzbuhel",
    "category": "city",
    "stream_url": "https://seedcams.us-webcam-monitor.local/austria-austria-kitzbuhel-city-9662/master.m3u8",
    "stream_type": "HLS",
    "source_website": "https://www.skylinewebcams.com/",
    "status": "unknown"
  },
  {
    "id": "seed-09663",
    "camera_name": "Vienna Tourism Cam",
    "latitude": 48.155605,
    "longitude": 16.370501,
    "country": "Austria",
    "state_or_region": "Austria",
    "city": "Vienna",
    "category": "tourism",
    "stream_url": "https://seedcams.us-webcam-monitor.local/austria-austria-vienna-tourism-9663/master.m3u8",
    "stream_type": "HLS",
    "source_website": "https://www.austria.info/",
    "status": "unknown"
  },
  {
    "id": "seed-09664",
    "camera_name": "Salzburg Main Street Cam",
    "latitude": 47.878825,
    "longitude": 13.016659,
    "country": "Austria",
    "state_or_region": "Austria",
    "city": "Salzburg",
    "category": "town",
    "stream_url": "https://seedcams.us-webcam-monitor.local/austria-austria-salzburg-town-9664/video.mjpg",
    "stream_type": "MJPEG",
    "source_website": "https://www.visit-europe.com/",
    "status": "unknown"
  },
  {
    "id": "seed-09665",
    "camera_name": "Innsbruck Wildlife Cam",
    "latitude": 47.248483,
    "longitude": 11.399428,
    "country": "Austria",
    "state_or_region": "Austria",
    "city": "Innsbruck",
    "category": "park",
    "stream_url": "https://seedcams.us-webcam-monitor.local/austria-austria-innsbruck-park-9665/master.m3u8",
    "stream_type": "HLS",
    "source_website": "https://www.nps.gov/",
    "status": "unknown"
  },
  {
    "id": "seed-09666",
    "camera_name": "Kitzbuhel Lift Cam",
    "latitude": 47.455381,
    "longitude": 12.442437,
    "country": "Austria",
    "state_or_region": "Austria",
    "city": "Kitzbuhel",
    "category": "ski",
    "stream_url": "https://seedcams.us-webcam-monitor.local/austria-austria-kitzbuhel-ski-9666/master.m3u8",
    "stream_type": "HLS",
    "source_website": "https://www.skiamade.com/",
    "status": "unknown"
  },
  {
    "id": "seed-09667",
    "camera_name": "Vienna Traffic Camera",
    "latitude": 48.265133,
    "longitude": 16.415385,
    "country": "Austria",
    "state_or_region": "Austria",
    "city": "Vienna",
    "category": "traffic",
    "stream_url": "https://seedcams.us-webcam-monitor.local/austria-austria-vienna-traffic-9667/video.mjpg",
    "stream_type": "MJPEG",
    "source_website": "https://www.asfinag.at/",
    "status": "unknown"
  },
  {
    "id": "seed-09668",
    "camera_name": "Salzburg Landmark Webcam",
    "latitude": 47.744096,
    "longitude": 13.10772,
    "country": "Austria",
    "state_or_region": "Austria",
    "city": "Salzburg",
    "category": "tourism",
    "stream_url": "https://seedcams.us-webcam-monitor.local/austria-austria-salzburg-tourism-9668/master.m3u8",
    "stream_type": "HLS",
    "source_website": "https://www.austria.info/",
    "status": "unknown"
  },
  {
    "id": "seed-09669",
    "camera_name": "Innsbruck Intersection Cam",
    "latitude": 47.325724,
    "longitude": 11.386286,
    "country": "Austria",
    "state_or_region": "Austria",
    "city": "Innsbruck",
    "category": "town",
    "stream_url": "https://seedcams.us-webcam-monitor.local/austria-austria-innsbruck-town-9669/video.mjpg",
    "stream_type": "MJPEG",
    "source_website": "https://www.earthcam.com/",
    "status": "unknown"
  },
  {
    "id": "seed-09670",
    "camera_name": "Kitzbuhel Lift Cam",
    "latitude": 47.415801,
    "longitude": 12.338016,
    "country": "Austria",
    "state_or_region": "Austria",
    "city": "Kitzbuhel",
    "category": "ski",
    "stream_url": "https://seedcams.us-webcam-monitor.local/austria-austria-kitzbuhel-ski-9670/camera",
    "stream_type": "UNKNOWN",
    "source_website": "https://www.skiamade.com/",
    "status": "unknown"
  },
  {
    "id": "seed-09671",
    "camera_name": "Vienna Ski Resort Cam",
    "latitude": 48.144424,
    "longitude": 16.438945,
    "country": "Austria",
    "state_or_region": "Austria",
    "city": "Vienna",
    "category": "ski",
    "stream_url": "https://seedcams.us-webcam-monitor.local/austria-austria-vienna-ski-9671/snapshot.jpg",
    "stream_type": "IMAGE",
    "source_website": "https://www.skiamade.com/",
    "status": "unknown"
  },
  {
    "id": "seed-09672",
    "camera_name": "Salzburg Downtown Cam",
    "latitude": 47.858825,
    "longitude": 13.056985,
    "country": "Austria",
    "state_or_region": "Austria",
    "city": "Salzburg",
    "category": "city",
    "stream_url": "https://seedcams.us-webcam-monitor.local/austria-austria-salzburg-city-9672/webcam",
    "stream_type": "EMBED",
    "source_website": "https://www.skylinewebcams.com/",
    "status": "unknown"
  },
  {
    "id": "seed-09673",
    "camera_name": "Innsbruck Boardwalk Cam",
    "latitude": 47.35095,
    "longitude": 11.443465,
    "country": "Austria",
    "state_or_region": "Austria",
    "city": "Innsbruck",
    "category": "tourism",
    "stream_url": "https://seedcams.us-webcam-monitor.local/austria-austria-innsbruck-tourism-9673/webcam",
    "stream_type": "EMBED",
    "source_website": "https://www.austria.info/",
    "status": "unknown"
  },
  {
    "id": "seed-09674",
    "camera_name": "Kitzbuhel Live View Cam",
    "latitude": 47.51571,
    "longitude": 12.434484,
    "country": "Austria",
    "state_or_region": "Austria",
    "city": "Kitzbuhel",
    "category": "tourism",
    "stream_url": "https://seedcams.us-webcam-monitor.local/austria-austria-kitzbuhel-tourism-9674/master.m3u8",
    "stream_type": "HLS",
    "source_website": "https://www.austria.info/",
    "status": "unknown"
  },
  {
    "id": "seed-09675",
    "camera_name": "Vienna Tourism Cam",
    "latitude": 48.267981,
    "longitude": 16.438711,
    "country": "Austria",
    "state_or_region": "Austria",
    "city": "Vienna",
    "category": "tourism",
    "stream_url": "https://seedcams.us-webcam-monitor.local/austria-austria-vienna-tourism-9675/master.m3u8",
    "stream_type": "HLS",
    "source_website": "https://www.austria.info/",
    "status": "unknown"
  },
  {
    "id": "seed-09676",
    "camera_name": "Salzburg Highway Camera",
    "latitude": 47.814282,
    "longitude": 13.043516,
    "country": "Austria",
    "state_or_region": "Austria",
    "city": "Salzburg",
    "category": "traffic",
    "stream_url": "https://seedcams.us-webcam-monitor.local/austria-austria-salzburg-traffic-9676/video.mjpg",
    "stream_type": "MJPEG",
    "source_website": "https://www.asfinag.at/",
    "status": "unknown"
  },
  {
    "id": "seed-09677",
    "camera_name": "Innsbruck Wildlife Cam",
    "latitude": 47.22548,
    "longitude": 11.456021,
    "country": "Austria",
    "state_or_region": "Austria",
    "city": "Innsbruck",
    "category": "park",
    "stream_url": "https://seedcams.us-webcam-monitor.local/austria-austria-innsbruck-park-9677/master.m3u8",
    "stream_type": "HLS",
    "source_website": "https://www.nps.gov/",
    "status": "unknown"
  },
  {
    "id": "seed-09678",
    "camera_name": "Kitzbuhel Lift Cam",
    "latitude": 47.365762,
    "longitude": 12.305642,
    "country": "Austria",
    "state_or_region": "Austria",
    "city": "Kitzbuhel",
    "category": "ski",
    "stream_url": "https://seedcams.us-webcam-monitor.local/austria-austria-kitzbuhel-ski-9678/snapshot.jpg",
    "stream_type": "IMAGE",
    "source_website": "https://www.skiamade.com/",
    "status": "unknown"
  },
  {
    "id": "seed-09679",
    "camera_name": "Vienna Ski Resort Cam",
    "latitude": 48.259378,
    "longitude": 16.391225,
    "country": "Austria",
    "state_or_region": "Austria",
    "city": "Vienna",
    "category": "ski",
    "stream_url": "https://seedcams.us-webcam-monitor.local/austria-austria-vienna-ski-9679/webcam",
    "stream_type": "EMBED",
    "source_website": "https://www.skiamade.com/",
    "status": "unknown"
  },
  {
    "id": "seed-09680",
    "camera_name": "Salzburg Landmark Webcam",
    "latitude": 47.788062,
    "longitude": 12.997875,
    "country": "Austria",
    "state_or_region": "Austria",
    "city": "Salzburg",
    "category": "tourism",
    "stream_url": "https://seedcams.us-webcam-monitor.local/austria-austria-salzburg-tourism-9680/camera",
    "stream_type": "UNKNOWN",
    "source_website": "https://www.austria.info/",
    "status": "unknown"
  },
  {
    "id": "seed-09681",
    "camera_name": "Innsbruck Boardwalk Cam",
    "latitude": 47.236214,
    "longitude": 11.353772,
    "country": "Austria",
    "state_or_region": "Austria",
    "city": "Innsbruck",
    "category": "tourism",
    "stream_url": "https://seedcams.us-webcam-monitor.local/austria-austria-innsbruck-tourism-9681/webcam",
    "stream_type": "EMBED",
    "source_website": "https://www.austria.info/",
    "status": "unknown"
  },
  {
    "id": "seed-09682",
    "camera_name": "Kitzbuhel Live View Cam",
    "latitude": 47.359685,
    "longitude": 12.306034,
    "country": "Austria",
    "state_or_region": "Austria",
    "city": "Kitzbuhel",
    "category": "tourism",
    "stream_url": "https://seedcams.us-webcam-monitor.local/austria-austria-kitzbuhel-tourism-9682/webcam",
    "stream_type": "EMBED",
    "source_website": "https://www.austria.info/",
    "status": "unknown"
  },
  {
    "id": "seed-09683",
    "camera_name": "Vienna Traffic Camera",
    "latitude": 48.201035,
    "longitude": 16.302211,
    "country": "Austria",
    "state_or_region": "Austria",
    "city": "Vienna",
    "category": "traffic",
    "stream_url": "https://seedcams.us-webcam-monitor.local/austria-austria-vienna-traffic-9683/master.m3u8",
    "stream_type": "HLS",
    "source_website": "https://www.asfinag.at/",
    "status": "unknown"
  },
  {
    "id": "seed-09684",
    "camera_name": "Salzburg Highway Camera",
    "latitude": 47.864305,
    "longitude": 13.009883,
    "country": "Austria",
    "state_or_region": "Austria",
    "city": "Salzburg",
    "category": "traffic",
    "stream_url": "https://seedcams.us-webcam-monitor.local/austria-austria-salzburg-traffic-9684/snapshot.jpg",
    "stream_type": "IMAGE",
    "source_website": "https://www.asfinag.at/",
    "status": "unknown"
  },
  {
    "id": "seed-09685",
    "camera_name": "Innsbruck Boardwalk Cam",
    "latitude": 47.357108,
    "longitude": 11.346506,
    "country": "Austria",
    "state_or_region": "Austria",
    "city": "Innsbruck",
    "category": "tourism",
    "stream_url": "https://seedcams.us-webcam-monitor.local/austria-austria-innsbruck-tourism-9685/master.m3u8",
    "stream_type": "HLS",
    "source_website": "https://www.austria.info/",
    "status": "unknown"
  },
  {
    "id": "seed-09686",
    "camera_name": "Kitzbuhel Lift Cam",
    "latitude": 47.374344,
    "longitude": 12.414058,
    "country": "Austria",
    "state_or_region": "Austria",
    "city": "Kitzbuhel",
    "category": "ski",
    "stream_url": "https://seedcams.us-webcam-monitor.local/austria-austria-kitzbuhel-ski-9686/snapshot.jpg",
    "stream_type": "IMAGE",
    "source_website": "https://www.skiamade.com/",
    "status": "unknown"
  },
  {
    "id": "seed-09687",
    "camera_name": "Vienna Weather Cam",
    "latitude": 48.123594,
    "longitude": 16.388639,
    "country": "Austria",
    "state_or_region": "Austria",
    "city": "Vienna",
    "category": "weather",
    "stream_url": "https://seedcams.us-webcam-monitor.local/austria-austria-vienna-weather-9687/snapshot.jpg",
    "stream_type": "IMAGE",
    "source_website": "https://weather.gov/",
    "status": "unknown"
  },
  {
    "id": "seed-09688",
    "camera_name": "Salzburg Snow Cam",
    "latitude": 47.83861,
    "longitude": 12.970463,
    "country": "Austria",
    "state_or_region": "Austria",
    "city": "Salzburg",
    "category": "ski",
    "stream_url": "https://seedcams.us-webcam-monitor.local/austria-austria-salzburg-ski-9688/camera",
    "stream_type": "UNKNOWN",
    "source_website": "https://www.skiamade.com/",
    "status": "unknown"
  },
  {
    "id": "seed-09689",
    "camera_name": "Innsbruck Interchange Cam",
    "latitude": 47.233586,
    "longitude": 11.38532,
    "country": "Austria",
    "state_or_region": "Austria",
    "city": "Innsbruck",
    "category": "traffic",
    "stream_url": "https://seedcams.us-webcam-monitor.local/austria-austria-innsbruck-traffic-9689/video.mjpg",
    "stream_type": "MJPEG",
    "source_website": "https://www.asfinag.at/",
    "status": "unknown"
  },
  {
    "id": "seed-09690",
    "camera_name": "Kitzbuhel Live View Cam",
    "latitude": 47.372893,
    "longitude": 12.341802,
    "country": "Austria",
    "state_or_region": "Austria",
    "city": "Kitzbuhel",
    "category": "tourism",
    "stream_url": "https://seedcams.us-webcam-monitor.local/austria-austria-kitzbuhel-tourism-9690/camera",
    "stream_type": "UNKNOWN",
    "source_website": "https://www.austria.info/",
    "status": "unknown"
  },
  {
    "id": "seed-09691",
    "camera_name": "Vienna Traffic Camera",
    "latitude": 48.243724,
    "longitude": 16.295609,
    "country": "Austria",
    "state_or_region": "Austria",
    "city": "Vienna",
    "category": "traffic",
    "stream_url": "https://seedcams.us-webcam-monitor.local/austria-austria-vienna-traffic-9691/video.mjpg",
    "stream_type": "MJPEG",
    "source_website": "https://www.asfinag.at/",
    "status": "unknown"
  },
  {
    "id": "seed-09692",
    "camera_name": "Salzburg Landmark Webcam",
    "latitude": 47.821601,
    "longitude": 12.98161,
    "country": "Austria",
    "state_or_region": "Austria",
    "city": "Salzburg",
    "category": "tourism",
    "stream_url": "https://seedcams.us-webcam-monitor.local/austria-austria-salzburg-tourism-9692/master.m3u8",
    "stream_type": "HLS",
    "source_website": "https://www.austria.info/",
    "status": "unknown"
  },
  {
    "id": "seed-09693",
    "camera_name": "Innsbruck Intersection Cam",
    "latitude": 47.350483,
    "longitude": 11.458444,
    "country": "Austria",
    "state_or_region": "Austria",
    "city": "Innsbruck",
    "category": "town",
    "stream_url": "https://seedcams.us-webcam-monitor.local/austria-austria-innsbruck-town-9693/webcam",
    "stream_type": "EMBED",
    "source_website": "https://www.earthcam.com/",
    "status": "unknown"
  },
  {
    "id": "seed-09694",
    "camera_name": "Kitzbuhel Village Cam",
    "latitude": 47.52627,
    "longitude": 12.429416,
    "country": "Austria",
    "state_or_region": "Austria",
    "city": "Kitzbuhel",
    "category": "town",
    "stream_url": "https://seedcams.us-webcam-monitor.local/austria-austria-kitzbuhel-town-9694/snapshot.jpg",
    "stream_type": "IMAGE",
    "source_website": "https://www.visit-europe.com/",
    "status": "unknown"
  },
  {
    "id": "seed-09695",
    "camera_name": "Vienna Tourism Cam",
    "latitude": 48.293766,
    "longitude": 16.32216,
    "country": "Austria",
    "state_or_region": "Austria",
    "city": "Vienna",
    "category": "tourism",
    "stream_url": "https://seedcams.us-webcam-monitor.local/austria-austria-vienna-tourism-9695/camera",
    "stream_type": "UNKNOWN",
    "source_website": "https://www.austria.info/",
    "status": "unknown"
  },
  {
    "id": "seed-09696",
    "camera_name": "Salzburg Storm Watch Cam",
    "latitude": 47.806093,
    "longitude": 13.079051,
    "country": "Austria",
    "state_or_region": "Austria",
    "city": "Salzburg",
    "category": "weather",
    "stream_url": "https://seedcams.us-webcam-monitor.local/austria-austria-salzburg-weather-9696/camera",
    "stream_type": "UNKNOWN",
    "source_website": "https://www.weatherbug.com/",
    "status": "unknown"
  },
  {
    "id": "seed-09697",
    "camera_name": "Innsbruck Interchange Cam",
    "latitude": 47.336655,
    "longitude": 11.331687,
    "country": "Austria",
    "state_or_region": "Austria",
    "city": "Innsbruck",
    "category": "traffic",
    "stream_url": "https://seedcams.us-webcam-monitor.local/austria-austria-innsbruck-traffic-9697/master.m3u8",
    "stream_type": "HLS",
    "source_website": "https://www.asfinag.at/",
    "status": "unknown"
  },
  {
    "id": "seed-09698",
    "camera_name": "Kitzbuhel Village Cam",
    "latitude": 47.387325,
    "longitude": 12.330567,
    "country": "Austria",
    "state_or_region": "Austria",
    "city": "Kitzbuhel",
    "category": "town",
    "stream_url": "https://seedcams.us-webcam-monitor.local/austria-austria-kitzbuhel-town-9698/snapshot.jpg",
    "stream_type": "IMAGE",
    "source_website": "https://www.visit-europe.com/",
    "status": "unknown"
  },
  {
    "id": "seed-09699",
    "camera_name": "Vienna Tourism Cam",
    "latitude": 48.229184,
    "longitude": 16.312251,
    "country": "Austria",
    "state_or_region": "Austria",
    "city": "Vienna",
    "category": "tourism",
    "stream_url": "https://seedcams.us-webcam-monitor.local/austria-austria-vienna-tourism-9699/camera",
    "stream_type": "UNKNOWN",
    "source_website": "https://www.austria.info/",
    "status": "unknown"
  },
  {
    "id": "seed-09700",
    "camera_name": "Salzburg Landmark Webcam",
    "latitude": 47.841408,
    "longitude": 13.011994,
    "country": "Austria",
    "state_or_region": "Austria",
    "city": "Salzburg",
    "category": "tourism",
    "stream_url": "https://seedcams.us-webcam-monitor.local/austria-austria-salzburg-tourism-9700/camera",
    "stream_type": "UNKNOWN",
    "source_website": "https://www.austria.info/",
    "status": "unknown"
  },
  {
    "id": "seed-09701",
    "camera_name": "Innsbruck Intersection Cam",
    "latitude": 47.216769,
    "longitude": 11.382728,
    "country": "Austria",
    "state_or_region": "Austria",
    "city": "Innsbruck",
    "category": "town",
    "stream_url": "https://seedcams.us-webcam-monitor.local/austria-austria-innsbruck-town-9701/webcam",
    "stream_type": "EMBED",
    "source_website": "https://www.earthcam.com/",
    "status": "unknown"
  },
  {
    "id": "seed-09702",
    "camera_name": "Kitzbuhel Conditions Cam",
    "latitude": 47.433144,
    "longitude": 12.374915,
    "country": "Austria",
    "state_or_region": "Austria",
    "city": "Kitzbuhel",
    "category": "weather",
    "stream_url": "https://seedcams.us-webcam-monitor.local/austria-austria-kitzbuhel-weather-9702/video.mjpg",
    "stream_type": "MJPEG",
    "source_website": "https://www.weatherbug.com/",
    "status": "unknown"
  },
  {
    "id": "seed-09703",
    "camera_name": "Vienna Park Webcam",
    "latitude": 48.272131,
    "longitude": 16.459453,
    "country": "Austria",
    "state_or_region": "Austria",
    "city": "Vienna",
    "category": "park",
    "stream_url": "https://seedcams.us-webcam-monitor.local/austria-austria-vienna-park-9703/webcam",
    "stream_type": "EMBED",
    "source_website": "https://www.nps.gov/",
    "status": "unknown"
  },
  {
    "id": "seed-09704",
    "camera_name": "Salzburg Storm Watch Cam",
    "latitude": 47.849436,
    "longitude": 13.115217,
    "country": "Austria",
    "state_or_region": "Austria",
    "city": "Salzburg",
    "category": "weather",
    "stream_url": "https://seedcams.us-webcam-monitor.local/austria-austria-salzburg-weather-9704/snapshot.jpg",
    "stream_type": "IMAGE",
    "source_website": "https://www.weatherbug.com/",
    "status": "unknown"
  },
  {
    "id": "seed-09705",
    "camera_name": "Innsbruck Boardwalk Cam",
    "latitude": 47.328609,
    "longitude": 11.44212,
    "country": "Austria",
    "state_or_region": "Austria",
    "city": "Innsbruck",
    "category": "tourism",
    "stream_url": "https://seedcams.us-webcam-monitor.local/austria-austria-innsbruck-tourism-9705/webcam",
    "stream_type": "EMBED",
    "source_website": "https://www.austria.info/",
    "status": "unknown"
  },
  {
    "id": "seed-09706",
    "camera_name": "Kitzbuhel Road Watch Cam",
    "latitude": 47.528634,
    "longitude": 12.363413,
    "country": "Austria",
    "state_or_region": "Austria",
    "city": "Kitzbuhel",
    "category": "traffic",
    "stream_url": "https://seedcams.us-webcam-monitor.local/austria-austria-kitzbuhel-traffic-9706/master.m3u8",
    "stream_type": "HLS",
    "source_website": "https://www.asfinag.at/",
    "status": "unknown"
  },
  {
    "id": "seed-09707",
    "camera_name": "Vienna Traffic Camera",
    "latitude": 48.161836,
    "longitude": 16.29641,
    "country": "Austria",
    "state_or_region": "Austria",
    "city": "Vienna",
    "category": "traffic",
    "stream_url": "https://seedcams.us-webcam-monitor.local/austria-austria-vienna-traffic-9707/video.mjpg",
    "stream_type": "MJPEG",
    "source_website": "https://www.asfinag.at/",
    "status": "unknown"
  },
  {
    "id": "seed-09708",
    "camera_name": "Salzburg Highway Camera",
    "latitude": 47.829524,
    "longitude": 13.129036,
    "country": "Austria",
    "state_or_region": "Austria",
    "city": "Salzburg",
    "category": "traffic",
    "stream_url": "https://seedcams.us-webcam-monitor.local/austria-austria-salzburg-traffic-9708/camera",
    "stream_type": "UNKNOWN",
    "source_website": "https://www.asfinag.at/",
    "status": "unknown"
  },
  {
    "id": "seed-09709",
    "camera_name": "Innsbruck Intersection Cam",
    "latitude": 47.25236,
    "longitude": 11.463595,
    "country": "Austria",
    "state_or_region": "Austria",
    "city": "Innsbruck",
    "category": "town",
    "stream_url": "https://seedcams.us-webcam-monitor.local/austria-austria-innsbruck-town-9709/camera",
    "stream_type": "UNKNOWN",
    "source_website": "https://www.earthcam.com/",
    "status": "unknown"
  },
  {
    "id": "seed-09710",
    "camera_name": "Kitzbuhel Scenic Cam",
    "latitude": 47.496883,
    "longitude": 12.446191,
    "country": "Austria",
    "state_or_region": "Austria",
    "city": "Kitzbuhel",
    "category": "park",
    "stream_url": "https://seedcams.us-webcam-monitor.local/austria-austria-kitzbuhel-park-9710/snapshot.jpg",
    "stream_type": "IMAGE",
    "source_website": "https://www.explore.org/",
    "status": "unknown"
  },
  {
    "id": "seed-09711",
    "camera_name": "Vienna Tourism Cam",
    "latitude": 48.285049,
    "longitude": 16.419987,
    "country": "Austria",
    "state_or_region": "Austria",
    "city": "Vienna",
    "category": "tourism",
    "stream_url": "https://seedcams.us-webcam-monitor.local/austria-austria-vienna-tourism-9711/webcam",
    "stream_type": "EMBED",
    "source_website": "https://www.austria.info/",
    "status": "unknown"
  },
  {
    "id": "seed-09712",
    "camera_name": "Salzburg Main Street Cam",
    "latitude": 47.794585,
    "longitude": 13.117522,
    "country": "Austria",
    "state_or_region": "Austria",
    "city": "Salzburg",
    "category": "town",
    "stream_url": "https://seedcams.us-webcam-monitor.local/austria-austria-salzburg-town-9712/video.mjpg",
    "stream_type": "MJPEG",
    "source_website": "https://www.visit-europe.com/",
    "status": "unknown"
  },
  {
    "id": "seed-09713",
    "camera_name": "Innsbruck Sky Cam",
    "latitude": 47.339571,
    "longitude": 11.381784,
    "country": "Austria",
    "state_or_region": "Austria",
    "city": "Innsbruck",
    "category": "weather",
    "stream_url": "https://seedcams.us-webcam-monitor.local/austria-austria-innsbruck-weather-9713/video.mjpg",
    "stream_type": "MJPEG",
    "source_website": "https://weather.gov/",
    "status": "unknown"
  },
  {
    "id": "seed-09714",
    "camera_name": "Kitzbuhel Conditions Cam",
    "latitude": 47.507131,
    "longitude": 12.332845,
    "country": "Austria",
    "state_or_region": "Austria",
    "city": "Kitzbuhel",
    "category": "weather",
    "stream_url": "https://seedcams.us-webcam-monitor.local/austria-austria-kitzbuhel-weather-9714/snapshot.jpg",
    "stream_type": "IMAGE",
    "source_website": "https://www.weatherbug.com/",
    "status": "unknown"
  },