[
  {
    "id": "seed-04001",
    "camera_name": "Denver Town Square Cam",
    "latitude": 39.80747,
    "longitude": -105.100149,
    "country": "United States",
    "state_or_region": "Colorado",
    "city": "Denver",
    "category": "town",
    "stream_url": "https://seedcams.us-webcam-monitor.local/united-states-colorado-denver-town-4001/snapshot.jpg",
    "stream_type": "IMAGE",
    "source_website": "https://www.earthcam.com/",
    "status": "unknown"
  },
  {
    "id": "seed-04002",
    "camera_name": "Vail Snow Cam",
    "latitude": 39.71418,
    "longitude": -106.422769,
    "country": "United States",
    "state_or_region": "Colorado",
    "city": "Vail",
    "category": "ski",
    "stream_url": "https://seedcams.us-webcam-monitor.local/united-states-colorado-vail-ski-4002/snapshot.jpg",
    "stream_type": "IMAGE",
    "source_website": "https://www.vail.com/",
    "status": "unknown"
  },
  {
    "id": "seed-04003",
    "camera_name": "Aspen Boardwalk Cam",
    "latitude": 39.294123,
    "longitude": -106.8427,
    "country": "United States",
    "state_or_region": "Colorado",
    "city": "Aspen",
    "category": "tourism",
    "stream_url": "https://seedcams.us-webcam-monitor.local/united-states-colorado-aspen-tourism-4003/snapshot.jpg",
    "stream_type": "IMAGE",
    "source_website": "https://www.earthcam.com/",
    "status": "unknown"
  },
  {
    "id": "seed-04004",
    "camera_name": "Breckenridge Lift Cam",
    "latitude": 39.515032,
    "longitude": -106.002874,
    "country": "United States",
    "state_or_region": "Colorado",
    "city": "Breckenridge",
    "category": "ski",
    "stream_url": "https://seedcams.us-webcam-monitor.local/united-states-colorado-breckenridge-ski-4004/camera",
    "stream_type": "UNKNOWN",
    "source_website": "https://www.vail.com/",
    "status": "unknown"
  },
  {
    "id": "seed-04005",
    "camera_name": "Estes Park Traffic Camera",
    "latitude": 40.421637,
    "longitude": -105.44642,
    "country": "United States",
    "state_or_region": "Colorado",
    "city": "Estes Park",
    "category": "traffic",
    "stream_url": "https://seedcams.us-webcam-monitor.local/united-states-colorado-estes-park-traffic-4005/snapshot.jpg",
    "stream_type": "IMAGE",
    "source_website": "https://maps.cotrip.org/",
    "status": "unknown"
  },
  {
    "id": "seed-04006",
    "camera_name": "Denver Storm Watch Cam",
    "latitude": 39.689428,
    "longitude": -105.011687,
    "country": "United States",
    "state_or_region": "Colorado",
    "city": "Denver",
    "category": "weather",
    "stream_url": "https://seedcams.us-webcam-monitor.local/united-states-colorado-denver-weather-4006/video.mjpg",
    "stream_type": "MJPEG",
    "source_website": "https://www.weatherbug.com/",
    "status": "unknown"
  },
  {
    "id": "seed-04007",
    "camera_name": "Vail Sky Cam",
    "latitude": 39.572208,
    "longitude": -106.425403,
    "country": "United States",
    "state_or_region": "Colorado",
    "city": "Vail",
    "category": "weather",
    "stream_url": "https://seedcams.us-webcam-monitor.local/united-states-colorado-vail-weather-4007/snapshot.jpg",
    "stream_type": "IMAGE",
    "source_website": "https://weather.gov/",
    "status": "unknown"
  },
  {
    "id": "seed-04008",
    "camera_name": "Aspen Road Watch Cam",
    "latitude": 39.134982,
    "longitude": -106.881508,
    "country": "United States",
    "state_or_region": "Colorado",
    "city": "Aspen",
    "category": "traffic",
    "stream_url": "https://seedcams.us-webcam-monitor.local/united-states-colorado-aspen-traffic-4008/snapshot.jpg",
    "stream_type": "IMAGE",
    "source_website": "https://maps.cotrip.org/",
    "status": "unknown"
  },
  {
    "id": "seed-04009",
    "camera_name": "Breckenridge Traffic Camera",
    "latitude": 39.405624,
    "longitude": -105.981528,
    "country": "United States",
    "state_or_region": "Colorado",
    "city": "Breckenridge",
    "category": "traffic",
    "stream_url": "https://seedcams.us-webcam-monitor.local/united-states-colorado-breckenridge-traffic-4009/video.mjpg",
    "stream_type": "MJPEG",
    "source_website": "https://maps.cotrip.org/",
    "status": "unknown"
  },
  {
    "id": "seed-04010",
    "camera_name": "Estes Park Main Street Cam",
    "latitude": 40.400029,
    "longitude": -105.501813,
    "country": "United States",
    "state_or_region": "Colorado",
    "city": "Estes Park",
    "category": "town",
    "stream_url": "https://seedcams.us-webcam-monitor.local/united-states-colorado-estes-park-town-4010/video.mjpg",
    "stream_type": "MJPEG",
    "source_website": "https://www.visit-europe.com/",
    "status": "unknown"
  },
  {
    "id": "seed-04011",
    "camera_name": "Denver Intersection Cam",
    "latitude": 39.726256,
    "longitude": -105.106781,
    "country": "United States",
    "state_or_region": "Colorado",
    "city": "Denver",
    "category": "town",
    "stream_url": "https://seedcams.us-webcam-monitor.local/united-states-colorado-denver-town-4011/camera",
    "stream_type": "UNKNOWN",
    "source_website": "https://www.earthcam.com/",
    "status": "unknown"
  },
  {
    "id": "seed-04012",
    "camera_name": "Vail Main Street Cam",
    "latitude": 39.559934,
    "longitude": -106.390811,
    "country": "United States",
    "state_or_region": "Colorado",
    "city": "Vail",
    "category": "city",
    "stream_url": "https://seedcams.us-webcam-monitor.local/united-states-colorado-vail-city-4012/camera",
    "stream_type": "UNKNOWN",
    "source_website": "https://www.skylinewebcams.com/",
    "status": "unknown"
  },
  {
    "id": "seed-04013",
    "camera_name": "Aspen Town Square Cam",
    "latitude": 39.077414,
    "longitude": -106.825356,
    "country": "United States",
    "state_or_region": "Colorado",
    "city": "Aspen",
    "category": "town",
    "stream_url": "https://seedcams.us-webcam-monitor.local/united-states-colorado-aspen-town-4013/video.mjpg",
    "stream_type": "MJPEG",
    "source_website": "https://www.earthcam.com/",
    "status": "unknown"
  },
  {
    "id": "seed-04014",
    "camera_name": "Breckenridge Snow Cam",
    "latitude": 39.491432,
    "longitude": -106.117233,
    "country": "United States",
    "state_or_region": "Colorado",
    "city": "Breckenridge",
    "category": "ski",
    "stream_url": "https://seedcams.us-webcam-monitor.local/united-states-colorado-breckenridge-ski-4014/webcam",
    "stream_type": "EMBED",
    "source_website": "https://www.vail.com/",
    "status": "unknown"
  },
  {
    "id": "seed-04015",
    "camera_name": "Estes Park Interchange Cam",
    "latitude": 40.295206,
    "longitude": -105.482014,
    "country": "United States",
    "state_or_region": "Colorado",
    "city": "Estes Park",
    "category": "traffic",
    "stream_url": "https://seedcams.us-webcam-monitor.local/united-states-colorado-estes-park-traffic-4015/video.mjpg",
    "stream_type": "MJPEG",
    "source_website": "https://maps.cotrip.org/",
    "status": "unknown"
  },
  {
    "id": "seed-04016",
    "camera_name": "Denver Road Watch Cam",
    "latitude": 39.769865,
    "longitude": -105.087481,
    "country": "United States",
    "state_or_region": "Colorado",
    "city": "Denver",
    "category": "traffic",
    "stream_url": "https://seedcams.us-webcam-monitor.local/united-states-colorado-denver-traffic-4016/master.m3u8",
    "stream_type": "HLS",
    "source_website": "https://maps.cotrip.org/",
    "status": "unknown"
  },
  {
    "id": "seed-04017",
    "camera_name": "Vail Town Square Cam",
    "latitude": 39.746791,
    "longitude": -106.302395,
    "country": "United States",
    "state_or_region": "Colorado",
    "city": "Vail",
    "category": "town",
    "stream_url": "https://seedcams.us-webcam-monitor.local/united-states-colorado-vail-town-4017/camera",
    "stream_type": "UNKNOWN",
    "source_website": "https://www.earthcam.com/",
    "status": "unknown"
  },
  {
    "id": "seed-04018",
    "camera_name": "Aspen Nature Cam",
    "latitude": 39.251322,
    "longitude": -106.800325,
    "country": "United States",
    "state_or_region": "Colorado",
    "city": "Aspen",
    "category": "park",
    "stream_url": "https://seedcams.us-webcam-monitor.local/united-states-colorado-aspen-park-4018/webcam",
    "stream_type": "EMBED",
    "source_website": "https://www.nps.gov/romo/index.htm",
    "status": "unknown"
  },
  {
    "id": "seed-04019",
    "camera_name": "Breckenridge Base Area Cam",
    "latitude": 39.548909,
    "longitude": -106.050741,
    "country": "United States",
    "state_or_region": "Colorado",
    "city": "Breckenridge",
    "category": "ski",
    "stream_url": "https://seedcams.us-webcam-monitor.local/united-states-colorado-breckenridge-ski-4019/webcam",
    "stream_type": "EMBED",
    "source_website": "https://www.vail.com/",
    "status": "unknown"
  },
  {
    "id": "seed-04020",
    "camera_name": "Estes Park Road Watch Cam",
    "latitude": 40.491443,
    "longitude": -105.410695,
    "country": "United States",
    "state_or_region": "Colorado",
    "city": "Estes Park",
    "category": "traffic",
    "stream_url": "https://seedcams.us-webcam-monitor.local/united-states-colorado-estes-park-traffic-4020/video.mjpg",
    "stream_type": "MJPEG",
    "source_website": "https://maps.cotrip.org/",
    "status": "unknown"
  },
  {
    "id": "seed-04021",
    "camera_name": "Denver Skyline Cam",
    "latitude": 39.769431,
    "longitude": -104.8788,
    "country": "United States",
    "state_or_region": "Colorado",
    "city": "Denver",
    "category": "city",
    "stream_url": "https://seedcams.us-webcam-monitor.local/united-states-colorado-denver-city-4021/webcam",
    "stream_type": "EMBED",
    "source_website": "https://www.earthcam.com/",
    "status": "unknown"
  },
  {
    "id": "seed-04022",
    "camera_name": "Vail Main Street Cam",
    "latitude": 39.715977,
    "longitude": -106.289864,
    "country": "United States",
    "state_or_region": "Colorado",
    "city": "Vail",
    "category": "town",
    "stream_url": "https://seedcams.us-webcam-monitor.local/united-states-colorado-vail-town-4022/webcam",
    "stream_type": "EMBED",
    "source_website": "https://www.visit-europe.com/",
    "status": "unknown"
  },
  {
    "id": "seed-04023",
    "camera_name": "Aspen Intersection Cam",
    "latitude": 39.285699,
    "longitude": -106.864513,
    "country": "United States",
    "state_or_region": "Colorado",
    "city": "Aspen",
    "category": "town",
    "stream_url": "https://seedcams.us-webcam-monitor.local/united-states-colorado-aspen-town-4023/camera",
    "stream_type": "UNKNOWN",
    "source_website": "https://www.earthcam.com/",
    "status": "unknown"
  },
  {
    "id": "seed-04024",
    "camera_name": "Breckenridge Road Watch Cam",
    "latitude": 39.47001,
    "longitude": -105.947157,
    "country": "United States",
    "state_or_region": "Colorado",
    "city": "Breckenridge",
    "category": "traffic",
    "stream_url": "https://seedcams.us-webcam-monitor.local/united-states-colorado-breckenridge-traffic-4024/master.m3u8",
    "stream_type": "HLS",
    "source_website": "https://maps.cotrip.org/",
    "status": "unknown"
  },
  {
    "id": "seed-04025",
    "camera_name": "Estes Park Weather Cam",
    "latitude": 40.479705,
    "longitude": -105.504639,
    "country": "United States",
    "state_or_region": "Colorado",
    "city": "Estes Park",
    "category": "weather",
    "stream_url": "https://seedcams.us-webcam-monitor.local/united-states-colorado-estes-park-weather-4025/video.mjpg",
    "stream_type": "MJPEG",
    "source_website": "https://weather.gov/",
    "status": "unknown"
  },
  {
    "id": "seed-04026",
    "camera_name": "Denver Snow Cam",
    "latitude": 39.72424,
    "longitude": -105.107532,
    "country": "United States",
    "state_or_region": "Colorado",
    "city": "Denver",
    "category": "ski",
    "stream_url": "https://seedcams.us-webcam-monitor.local/united-states-colorado-denver-ski-4026/snapshot.jpg",
    "stream_type": "IMAGE",
    "source_website": "https://www.vail.com/",
    "status": "unknown"
  },
  {
    "id": "seed-04027",
    "camera_name": "Vail Interchange Cam",
    "latitude": 39.58258,
    "longitude": -106.482963,
    "country": "United States",
    "state_or_region": "Colorado",
    "city": "Vail",
    "category": "traffic",
    "stream_url": "https://seedcams.us-webcam-monitor.local/united-states-colorado-vail-traffic-4027/master.m3u8",
    "stream_type": "HLS",
    "source_website": "https://maps.cotrip.org/",
    "status": "unknown"
  },
  {
    "id": "seed-04028",
    "camera_name": "Aspen Lift Cam",
    "latitude": 39.093587,
    "longitude": -106.735278,
    "country": "United States",
    "state_or_region": "Colorado",
    "city": "Aspen",
    "category": "ski",
    "stream_url": "https://seedcams.us-webcam-monitor.local/united-states-colorado-aspen-ski-4028/snapshot.jpg",
    "stream_type": "IMAGE",
    "source_website": "https://www.vail.com/",
    "status": "unknown"
  },
  {
    "id": "seed-04029",
    "camera_name": "Breckenridge Tourism Cam",
    "latitude": 39.382131,
    "longitude": -106.015437,
    "country": "United States",
    "state_or_region": "Colorado",
    "city": "Breckenridge",
    "category": "tourism",
    "stream_url": "https://seedcams.us-webcam-monitor.local/united-states-colorado-breckenridge-tourism-4029/master.m3u8",
    "stream_type": "HLS",
    "source_website": "https://www.earthcam.com/",
    "status": "unknown"
  },
  {
    "id": "seed-04030",
    "camera_name": "Estes Park Highway Camera",
    "latitude": 40.277368,
    "longitude": -105.603821,
    "country": "United States",
    "state_or_region": "Colorado",
    "city": "Estes Park",
    "category": "traffic",
    "stream_url": "https://seedcams.us-webcam-monitor.local/united-states-colorado-estes-park-traffic-4030/snapshot.jpg",
    "stream_type": "IMAGE",
    "source_website": "https://maps.cotrip.org/",
    "status": "unknown"
  },
  {
    "id": "seed-04031",
    "camera_name": "Denver Boardwalk Cam",
    "latitude": 39.760903,
    "longitude": -104.920349,
    "country": "United States",
    "state_or_region": "Colorado",
    "city": "Denver",
    "category": "tourism",
    "stream_url": "https://seedcams.us-webcam-monitor.local/united-states-colorado-denver-tourism-4031/snapshot.jpg",
    "stream_type": "IMAGE",
    "source_website": "https://www.earthcam.com/",
    "status": "unknown"
  },
  {
    "id": "seed-04032",
    "camera_name": "Vail Lift Cam",
    "latitude": 39.737215,
    "longitude": -106.458095,
    "country": "United States",
    "state_or_region": "Colorado",
    "city": "Vail",
    "category": "ski",
    "stream_url": "https://seedcams.us-webcam-monitor.local/united-states-colorado-vail-ski-4032/snapshot.jpg",
    "stream_type": "IMAGE",
    "source_website": "https://www.vail.com/",
    "status": "unknown"
  },
  {
    "id": "seed-04033",
    "camera_name": "Aspen Skyline Cam",
    "latitude": 39.297485,
    "longitude": -106.776634,
    "country": "United States",
    "state_or_region": "Colorado",
    "city": "Aspen",
    "category": "city",
    "stream_url": "https://seedcams.us-webcam-monitor.local/united-states-colorado-aspen-city-4033/webcam",
    "stream_type": "EMBED",
    "source_website": "https://www.earthcam.com/",
    "status": "unknown"
  },
  {
    "id": "seed-04034",
    "camera_name": "Breckenridge Landmark Webcam",
    "latitude": 39.373706,
    "longitude": -106.148048,
    "country": "United States",
    "state_or_region": "Colorado",
    "city": "Breckenridge",
    "category": "tourism",
    "stream_url": "https://seedcams.us-webcam-monitor.local/united-states-colorado-breckenridge-tourism-4034/snapshot.jpg",
    "stream_type": "IMAGE",
    "source_website": "https://www.skylinewebcams.com/",
    "status": "unknown"
  },
  {
    "id": "seed-04035",
    "camera_name": "Estes Park Sky Cam",
    "latitude": 40.319276,
    "longitude": -105.451987,
    "country": "United States",
    "state_or_region": "Colorado",
    "city": "Estes Park",
    "category": "weather",
    "stream_url": "https://seedcams.us-webcam-monitor.local/united-states-colorado-estes-park-weather-4035/master.m3u8",
    "stream_type": "HLS",
    "source_website": "https://weather.gov/",
    "status": "unknown"
  },
  {
    "id": "seed-04036",
    "camera_name": "Denver Live View Cam",
    "latitude": 39.704306,
    "longitude": -105.099735,
    "country": "United States",
    "state_or_region": "Colorado",
    "city": "Denver",
    "category": "tourism",
    "stream_url": "https://seedcams.us-webcam-monitor.local/united-states-colorado-denver-tourism-4036/master.m3u8",
    "stream_type": "HLS",
    "source_website": "https://www.skylinewebcams.com/",
    "status": "unknown"
  },
  {
    "id": "seed-04037",
    "camera_name": "Vail Tourism Cam",
    "latitude": 39.562787,
    "longitude": -106.426012,
    "country": "United States",
    "state_or_region": "Colorado",
    "city": "Vail",
    "category": "tourism",
    "stream_url": "https://seedcams.us-webcam-monitor.local/united-states-colorado-vail-tourism-4037/snapshot.jpg",
    "stream_type": "IMAGE",
    "source_website": "https://www.earthcam.com/",
    "status": "unknown"
  },
  {
    "id": "seed-04038",
    "camera_name": "Aspen Landmark Webcam",
    "latitude": 39.205065,
    "longitude": -106.857506,
    "country": "United States",
    "state_or_region": "Colorado",
    "city": "Aspen",
    "category": "tourism",
    "stream_url": "https://seedcams.us-webcam-monitor.local/united-states-colorado-aspen-tourism-4038/snapshot.jpg",
    "stream_type": "IMAGE",
    "source_website": "https://www.skylinewebcams.com/",
    "status": "unknown"
  },
  {
    "id": "seed-04039",
    "camera_name": "Breckenridge Sky Cam",
    "latitude": 39.585142,
    "longitude": -106.018952,
    "country": "United States",
    "state_or_region": "Colorado",
    "city": "Breckenridge",
    "category": "weather",
    "stream_url": "https://seedcams.us-webcam-monitor.local/united-states-colorado-breckenridge-weather-4039/snapshot.jpg",
    "stream_type": "IMAGE",
    "source_website": "https://weather.gov/",
    "status": "unknown"
  },
  {
    "id": "seed-04040",
    "camera_name": "Estes Park Live View Cam",
    "latitude": 40.411082,
    "longitude": -105.598086,
    "country": "United States",
    "state_or_region": "Colorado",
    "city": "Estes Park",
    "category": "tourism",
    "stream_url": "https://seedcams.us-webcam-monitor.local/united-states-colorado-estes-park-tourism-4040/snapshot.jpg",
    "stream_type": "IMAGE",
    "source_website": "https://www.skylinewebcams.com/",
    "status": "unknown"
  },
  {
    "id": "seed-04041",
    "camera_name": "Denver Ski Resort Cam",
    "latitude": 39.841495,
    "longitude": -104.941817,
    "country": "United States",
    "state_or_region": "Colorado",
    "city": "Denver",
    "category": "ski",
    "stream_url": "https://seedcams.us-webcam-monitor.local/united-states-colorado-denver-ski-4041/webcam",
    "stream_type": "EMBED",
    "source_website": "https://www.vail.com/",
    "status": "unknown"
  },
  {
    "id": "seed-04042",
    "camera_name": "Vail Nature Cam",
    "latitude": 39.612395,
    "longitude": -106.434523,
    "country": "United States",
    "state_or_region": "Colorado",
    "city": "Vail",
    "category": "park",
    "stream_url": "https://seedcams.us-webcam-monitor.local/united-states-colorado-vail-park-4042/master.m3u8",
    "stream_type": "HLS",
    "source_website": "https://www.nps.gov/romo/index.htm",
    "status": "unknown"
  },
  {
    "id": "seed-04043",
    "camera_name": "Aspen Wildlife Cam",
    "latitude": 39.077249,
    "longitude": -106.828766,
    "country": "United States",
    "state_or_region": "Colorado",
    "city": "Aspen",
    "category": "park",
    "stream_url": "https://seedcams.us-webcam-monitor.local/united-states-colorado-aspen-park-4043/master.m3u8",
    "stream_type": "HLS",
    "source_website": "https://www.nps.gov/romo/index.htm",
    "status": "unknown"
  },
  {
    "id": "seed-04044",
    "camera_name": "Breckenridge Conditions Cam",
    "latitude": 39.364488,
    "longitude": -106.0238,
    "country": "United States",
    "state_or_region": "Colorado",
    "city": "Breckenridge",
    "category": "weather",
    "stream_url": "https://seedcams.us-webcam-monitor.local/united-states-colorado-breckenridge-weather-4044/snapshot.jpg",
    "stream_type": "IMAGE",
    "source_website": "https://www.weatherbug.com/",
    "status": "unknown"
  },
  {
    "id": "seed-04045",
    "camera_name": "Estes Park Traffic Camera",
    "latitude": 40.492694,
    "longitude": -105.556363,
    "country": "United States",
    "state_or_region": "Colorado",
    "city": "Estes Park",
    "category": "traffic",
    "stream_url": "https://seedcams.us-webcam-monitor.local/united-states-colorado-estes-park-traffic-4045/video.mjpg",
    "stream_type": "MJPEG",
    "source_website": "https://maps.cotrip.org/",
    "status": "unknown"
  },
  {
    "id": "seed-04046",
    "camera_name": "Denver Landmark Webcam",
    "latitude": 39.716791,
    "longitude": -104.980071,
    "country": "United States",
    "state_or_region": "Colorado",
    "city": "Denver",
    "category": "tourism",
    "stream_url": "https://seedcams.us-webcam-monitor.local/united-states-colorado-denver-tourism-4046/snapshot.jpg",
    "stream_type": "IMAGE",
    "source_website": "https://www.skylinewebcams.com/",
    "status": "unknown"
  },
  {
    "id": "seed-04047",
    "camera_name": "Vail Interchange Cam",
    "latitude": 39.658029,
    "longitude": -106.304757,
    "country": "United States",
    "state_or_region": "Colorado",
    "city": "Vail",
    "category": "traffic",
    "stream_url": "https://seedcams.us-webcam-monitor.local/united-states-colorado-vail-traffic-4047/snapshot.jpg",
    "stream_type": "IMAGE",
    "source_website": "https://maps.cotrip.org/",
    "status": "unknown"
  },
  {
    "id": "seed-04048",
    "camera_name": "Aspen Scenic Cam",
    "latitude": 39.198949,
    "longitude": -106.817066,
    "country": "United States",
    "state_or_region": "Colorado",
    "city": "Aspen",
    "category": "park",
    "stream_url": "https://seedcams.us-webcam-monitor.local/united-states-colorado-aspen-park-4048/master.m3u8",
    "stream_type": "HLS",
    "source_website": "https://www.nps.gov/romo/index.htm",
    "status": "unknown"
  },
  {
    "id": "seed-04049",
    "camera_name": "Breckenridge Ski Resort Cam",
    "latitude": 39.39469,
    "longitude": -106.096352,
    "country": "United States",
    "state_or_region": "Colorado",
    "city": "Breckenridge",
    "category": "ski",
    "stream_url": "https://seedcams.us-webcam-monitor.local/united-states-colorado-breckenridge-ski-4049/webcam",
    "stream_type": "EMBED",
    "source_website": "https://www.vail.com/",
    "status": "unknown"
  },
  {
    "id": "seed-04050",
    "camera_name": "Estes Park Snow Cam",
    "latitude": 40.437895,
    "longitude": -105.534858,
    "country": "United States",
    "state_or_region": "Colorado",
    "city": "Estes Park",
    "category": "ski",
    "stream_url": "https://seedcams.us-webcam-monitor.local/united-states-colorado-estes-park-ski-4050/camera",
    "stream_type": "UNKNOWN",
    "source_website": "https://www.vail.com/",
    "status": "unknown"
  },
  {
    "id": "seed-04051",
    "camera_name": "Denver Base Area Cam",
    "latitude": 39.768777,
    "longitude": -105.095082,
    "country": "United States",
    "state_or_region": "Colorado",
    "city": "Denver",
    "category": "ski",
    "stream_url": "https://seedcams.us-webcam-monitor.local/united-states-colorado-denver-ski-4051/snapshot.jpg",
    "stream_type": "IMAGE",
    "source_website": "https://www.vail.com/",
    "status": "unknown"
  },
  {
    "id": "seed-04052",
    "camera_name": "Vail Scenic Cam",
    "latitude": 39.719427,
    "longitude": -106.35344,
    "country": "United States",
    "state_or_region": "Colorado",
    "city": "Vail",
    "category": "park",
    "stream_url": "https://seedcams.us-webcam-monitor.local/united-states-colorado-vail-park-4052/snapshot.jpg",
    "stream_type": "IMAGE",
    "source_website": "https://www.nps.gov/romo/index.htm",
    "status": "unknown"
  },
  {
    "id": "seed-04053",
    "camera_name": "Aspen Skyline Cam",
    "latitude": 39.156959,
    "longitude": -106.756182,
    "country": "United States",
    "state_or_region": "Colorado",
    "city": "Aspen",
    "category": "city",
    "stream_url": "https://seedcams.us-webcam-monitor.local/united-states-colorado-aspen-city-4053/snapshot.jpg",
    "stream_type": "IMAGE",
    "source_website": "https://www.earthcam.com/",
    "status": "unknown"
  },
  {
    "id": "seed-04054",
    "camera_name": "Breckenridge Snow Cam",
    "latitude": 39.601359,
    "longitude": -105.948848,
    "country": "United States",
    "state_or_region": "Colorado",
    "city": "Breckenridge",
    "category": "ski",
    "stream_url": "https://seedcams.us-webcam-monitor.local/united-states-colorado-breckenridge-ski-4054/webcam",
    "stream_type": "EMBED",
    "source_website": "https://www.vail.com/",
    "status": "unknown"
  },
  {
    "id": "seed-04055",
    "camera_name": "Estes Park City Center Webcam",
    "latitude": 40.308403,
    "longitude": -105.468969,
    "country": "United States",
    "state_or_region": "Colorado",
    "city": "Estes Park",
    "category": "city",
    "stream_url": "https://seedcams.us-webcam-monitor.local/united-states-colorado-estes-park-city-4055/master.m3u8",
    "stream_type": "HLS",
    "source_website": "https://www.earthcam.com/",
    "status": "unknown"
  },
  {
    "id": "seed-04056",
    "camera_name": "Denver Live View Cam",
    "latitude": 39.854643,
    "longitude": -105.09979,
    "country": "United States",
    "state_or_region": "Colorado",
    "city": "Denver",
    "category": "tourism",
    "stream_url": "https://seedcams.us-webcam-monitor.local/united-states-colorado-denver-tourism-4056/webcam",
    "stream_type": "EMBED",
    "source_website": "https://www.skylinewebcams.com/",
    "status": "unknown"
  },
  {
    "id": "seed-04057",
    "camera_name": "Vail Park Webcam",
    "latitude": 39.542955,
    "longitude": -106.414412,
    "country": "United States",
    "state_or_region": "Colorado",
    "city": "Vail",
    "category": "park",
    "stream_url": "https://seedcams.us-webcam-monitor.local/united-states-colorado-vail-park-4057/master.m3u8",
    "stream_type": "HLS",
    "source_website": "https://www.nps.gov/romo/index.htm",
    "status": "unknown"
  },
  {
    "id": "seed-04058",
    "camera_name": "Aspen Landmark Webcam",
    "latitude": 39.110838,
    "longitude": -106.719957,
    "country": "United States",
    "state_or_region": "Colorado",
    "city": "Aspen",
    "category": "tourism",
    "stream_url": "https://seedcams.us-webcam-monitor.local/united-states-colorado-aspen-tourism-4058/webcam",
    "stream_type": "EMBED",
    "source_website": "https://www.skylinewebcams.com/",
    "status": "unknown"
  },
  {
    "id": "seed-04059",
    "camera_name": "Breckenridge Wildlife Cam",
    "latitude": 39.396415,
    "longitude": -106.128503,
    "country": "United States",
    "state_or_region": "Colorado",
    "city": "Breckenridge",
    "category": "park",
    "stream_url": "https://seedcams.us-webcam-monitor.local/united-states-colorado-breckenridge-park-4059/snapshot.jpg",
    "stream_type": "IMAGE",
    "source_website": "https://www.nps.gov/romo/index.htm",
    "status": "unknown"
  },
  {
    "id": "seed-04060",
    "camera_name": "Estes Park Road Watch Cam",
    "latitude": 40.264776,
    "longitude": -105.59532,
    "country": "United States",
    "state_or_region": "Colorado",
    "city": "Estes Park",
    "category": "traffic",
    "stream_url": "https://seedcams.us-webcam-monitor.local/united-states-colorado-estes-park-traffic-4060/video.mjpg",
    "stream_type": "MJPEG",
    "source_website": "https://maps.cotrip.org/",
    "status": "unknown"
  },
  {
    "id": "seed-04061",
    "camera_name": "Denver Park Webcam",
    "latitude": 39.755333,
    "longitude": -105.013804,
    "country": "United States",
    "state_or_region": "Colorado",
    "city": "Denver",
    "category": "park",
    "stream_url": "https://seedcams.us-webcam-monitor.local/united-states-colorado-denver-park-4061/snapshot.jpg",
    "stream_type": "IMAGE",
    "source_website": "https://www.nps.gov/romo/index.htm",
    "status": "unknown"
  },
  {
    "id": "seed-04062",
    "camera_name": "Vail Highway Camera",
    "latitude": 39.636518,
    "longitude": -106.275427,
    "country": "United States",
    "state_or_region": "Colorado",
    "city": "Vail",
    "category": "traffic",
    "stream_url": "https://seedcams.us-webcam-monitor.local/united-states-colorado-vail-traffic-4062/master.m3u8",
    "stream_type": "HLS",
    "source_website": "https://maps.cotrip.org/",
    "status": "unknown"
  },
  {
    "id": "seed-04063",
    "camera_name": "Aspen City Center Webcam",
    "latitude": 39.101527,
    "longitude": -106.875414,
    "country": "United States",
    "state_or_region": "Colorado",
    "city": "Aspen",
    "category": "city",
    "stream_url": "https://seedcams.us-webcam-monitor.local/united-states-colorado-aspen-city-4063/snapshot.jpg",
    "stream_type": "IMAGE",
    "source_website": "https://www.earthcam.com/",
    "status": "unknown"
  },
  {
    "id": "seed-04064",
    "camera_name": "Breckenridge Lift Cam",
    "latitude": 39.513017,
    "longitude": -106.027191,
    "country": "United States",
    "state_or_region": "Colorado",
    "city": "Breckenridge",
    "category": "ski",
    "stream_url": "https://seedcams.us-webcam-monitor.local/united-states-colorado-breckenridge-ski-4064/webcam",
    "stream_type": "EMBED",
    "source_website": "https://www.vail.com/",
    "status": "unknown"
  },
  {
    "id": "seed-04065",
    "camera_name": "Estes Park Town Square Cam",
    "latitude": 40.465112,
    "longitude": -105.530886,
    "country": "United States",
    "state_or_region": "Colorado",
    "city": "Estes Park",
    "category": "town",
    "stream_url": "https://seedcams.us-webcam-monitor.local/united-states-colorado-estes-park-town-4065/camera",
    "stream_type": "UNKNOWN",
    "source_website": "https://www.earthcam.com/",
    "status": "unknown"
  },
  {
    "id": "seed-04066",
    "camera_name": "Denver Snow Cam",
    "latitude": 39.638309,
    "longitude": -105.045291,
    "country": "United States",
    "state_or_region": "Colorado",
    "city": "Denver",
    "category": "ski",
    "stream_url": "https://seedcams.us-webcam-monitor.local/united-states-colorado-denver-ski-4066/master.m3u8",
    "stream_type": "HLS",
    "source_website": "https://www.vail.com/",
    "status": "unknown"
  },
  {
    "id": "seed-04067",
    "camera_name": "Vail Base Area Cam",
    "latitude": 39.709246,
    "longitude": -106.292664,
    "country": "United States",
    "state_or_region": "Colorado",
    "city": "Vail",
    "category": "ski",
    "stream_url": "https://seedcams.us-webcam-monitor.local/united-states-colorado-vail-ski-4067/camera",
    "stream_type": "UNKNOWN",
    "source_website": "https://www.vail.com/",
    "status": "unknown"
  },
  {
    "id": "seed-04068",
    "camera_name": "Aspen Lift Cam",
    "latitude": 39.221482,
    "longitude": -106.710176,
    "country": "United States",
    "state_or_region": "Colorado",
    "city": "Aspen",
    "category": "ski",
    "stream_url": "https://seedcams.us-webcam-monitor.local/united-states-colorado-aspen-ski-4068/camera",
    "stream_type": "UNKNOWN",
    "source_website": "https://www.vail.com/",
    "status": "unknown"
  },
  {
    "id": "seed-04069",
    "camera_name": "Breckenridge Ski Resort Cam",
    "latitude": 39.490917,
    "longitude": -105.965256,
    "country": "United States",
    "state_or_region": "Colorado",
    "city": "Breckenridge",
    "category": "ski",
    "stream_url": "https://seedcams.us-webcam-monitor.local/united-states-colorado-breckenridge-ski-4069/snapshot.jpg",
    "stream_type": "IMAGE",
    "source_website": "https://www.vail.com/",
    "status": "unknown"
  },
  {
    "id": "seed-04070",
    "camera_name": "Estes Park Nature Cam",
    "latitude": 40.352199,
    "longitude": -105.493249,
    "country": "United States",
    "state_or_region": "Colorado",
    "city": "Estes Park",
    "category": "park",
    "stream_url": "https://seedcams.us-webcam-monitor.local/united-states-colorado-estes-park-park-4070/camera",
    "stream_type": "UNKNOWN",
    "source_website": "https://www.nps.gov/romo/index.htm",
    "status": "unknown"
  },
  {
    "id": "seed-04071",
    "camera_name": "Denver Base Area Cam",
    "latitude": 39.710679,
    "longitude": -105.035336,
    "country": "United States",
    "state_or_region": "Colorado",
    "city": "Denver",
    "category": "ski",
    "stream_url": "https://seedcams.us-webcam-monitor.local/united-states-colorado-denver-ski-4071/camera",
    "stream_type": "UNKNOWN",
    "source_website": "https://www.vail.com/",
    "status": "unknown"
  },
  {
    "id": "seed-04072",
    "camera_name": "Vail Live View Cam",
    "latitude": 39.601968,
    "longitude": -106.431507,
    "country": "United States",
    "state_or_region": "Colorado",
    "city": "Vail",
    "category": "tourism",
    "stream_url": "https://seedcams.us-webcam-monitor.local/united-states-colorado-vail-tourism-4072/webcam",
    "stream_type": "EMBED",
    "source_website": "https://www.skylinewebcams.com/",
    "status": "unknown"
  },
  {
    "id": "seed-04073",
    "camera_name": "Aspen Weather Cam",
    "latitude": 39.097655,
    "longitude": -106.790213,
    "country": "United States",
    "state_or_region": "Colorado",
    "city": "Aspen",
    "category": "weather",
    "stream_url": "https://seedcams.us-webcam-monitor.local/united-states-colorado-aspen-weather-4073/video.mjpg",
    "stream_type": "MJPEG",
    "source_website": "https://weather.gov/",
    "status": "unknown"
  },
  {
    "id": "seed-04074",
    "camera_name": "Breckenridge Downtown Cam",
    "latitude": 39.375761,
    "longitude": -105.993411,
    "country": "United States",
    "state_or_region": "Colorado",
    "city": "Breckenridge",
    "category": "city",
    "stream_url": "https://seedcams.us-webcam-monitor.local/united-states-colorado-breckenridge-city-4074/snapshot.jpg",
    "stream_type": "IMAGE",
    "source_website": "https://www.skylinewebcams.com/",
    "status": "unknown"
  },
  {
    "id": "seed-04075",
    "camera_name": "Estes Park Base Area Cam",
    "latitude": 40.424478,
    "longitude": -105.550142,
    "country": "United States",
    "state_or_region": "Colorado",
    "city": "Estes Park",
    "category": "ski",
    "stream_url": "https://seedcams.us-webcam-monitor.local/united-states-colorado-estes-park-ski-4075/snapshot.jpg",
    "stream_type": "IMAGE",
    "source_website": "https://www.vail.com/",
    "status": "unknown"
  },
  {
    "id": "seed-04076",
    "camera_name": "Denver Main Street Cam",
    "latitude": 39.636092,
    "longitude": -105.091434,
    "country": "United States",
    "state_or_region": "Colorado",
    "city": "Denver",
    "category": "city",
    "stream_url": "https://seedcams.us-webcam-monitor.local/united-states-colorado-denver-city-4076/webcam",
    "stream_type": "EMBED",
    "source_website": "https://www.skylinewebcams.com/",
    "status": "unknown"
  },
  {
    "id": "seed-04077",
    "camera_name": "Vail Skyline Cam",
    "latitude": 39.720106,
    "longitude": -106.365124,
    "country": "United States",
    "state_or_region": "Colorado",
    "city": "Vail",
    "category": "city",
    "stream_url": "https://seedcams.us-webcam-monitor.local/united-states-colorado-vail-city-4077/master.m3u8",
    "stream_type": "HLS",
    "source_website": "https://www.earthcam.com/",
    "status": "unknown"
  },
  {
    "id": "seed-04078",
    "camera_name": "Aspen Landmark Webcam",
    "latitude": 39.120814,
    "longitude": -106.862047,
    "country": "United States",
    "state_or_region": "Colorado",
    "city": "Aspen",
    "category": "tourism",
    "stream_url": "https://seedcams.us-webcam-monitor.local/united-states-colorado-aspen-tourism-4078/snapshot.jpg",
    "stream_type": "IMAGE",
    "source_website": "https://www.skylinewebcams.com/",
    "status": "unknown"
  },
  {
    "id": "seed-04079",
    "camera_name": "Breckenridge Sky Cam",
    "latitude": 39.391883,
    "longitude": -106.03488,
    "country": "United States",
    "state_or_region": "Colorado",
    "city": "Breckenridge",
    "category": "weather",
    "stream_url": "https://seedcams.us-webcam-monitor.local/united-states-colorado-breckenridge-weather-4079/master.m3u8",
    "stream_type": "HLS",
    "source_website": "https://weather.gov/",
    "status": "unknown"
  },
  {
    "id": "seed-04080",
    "camera_name": "Estes Park Scenic Cam",
    "latitude": 40.270595,
    "longitude": -105.525178,
    "country": "United States",
    "state_or_region": "Colorado",
    "city": "Estes Park",
    "category": "park",
    "stream_url": "https://seedcams.us-webcam-monitor.local/united-states-colorado-estes-park-park-4080/snapshot.jpg",
    "stream_type": "IMAGE",
    "source_website": "https://www.nps.gov/romo/index.htm",
    "status": "unknown"
  },
  {
    "id": "seed-04081",
    "camera_name": "Denver Traffic Camera",
    "latitude": 39.775519,
    "longitude": -105.038028,
    "country": "United States",
    "state_or_region": "Colorado",
    "city": "Denver",
    "category": "traffic",
    "stream_url": "https://seedcams.us-webcam-monitor.local/united-states-colorado-denver-traffic-4081/snapshot.jpg",
    "stream_type": "IMAGE",
    "source_website": "https://maps.cotrip.org/",
    "status": "unknown"
  },
  {
    "id": "seed-04082",
    "camera_name": "Vail Highway Camera",
    "latitude": 39.659587,
    "longitude": -106.451257,
    "country": "United States",
    "state_or_region": "Colorado",
    "city": "Vail",
    "category": "traffic",
    "stream_url": "https://seedcams.us-webcam-monitor.local/united-states-colorado-vail-traffic-4082/snapshot.jpg",
    "stream_type": "IMAGE",
    "source_website": "https://maps.cotrip.org/",
    "status": "unknown"
  },
  {
    "id": "seed-04083",
    "camera_name": "Aspen Wildlife Cam",
    "latitude": 39.161111,
    "longitude": -106.729856,
    "country": "United States",
    "state_or_region": "Colorado",
    "city": "Aspen",
    "category": "park",
    "stream_url": "https://seedcams.us-webcam-monitor.local/united-states-colorado-aspen-park-4083/snapshot.jpg",
    "stream_type": "IMAGE",
    "source_website": "https://www.nps.gov/romo/index.htm",
    "status": "unknown"
  },
  {
    "id": "seed-04084",
    "camera_name": "Breckenridge Live View Cam",
    "latitude": 39.495321,
    "longitude": -106.054022,
    "country": "United States",
    "state_or_region": "Colorado",
    "city": "Breckenridge",
    "category": "tourism",
    "stream_url": "https://seedcams.us-webcam-monitor.local/united-states-colorado-breckenridge-tourism-4084/snapshot.jpg",
    "stream_type": "IMAGE",
    "source_website": "https://www.skylinewebcams.com/",
    "status": "unknown"
  },
  {
    "id": "seed-04085",
    "camera_name": "Estes Park Ski Resort Cam",
    "latitude": 40.446603,
    "longitude": -105.578789,
    "country": "United States",
    "state_or_region": "Colorado",
    "city": "Estes Park",
    "category": "ski",
    "stream_url": "https://seedcams.us-webcam-monitor.local/united-states-colorado-estes-park-ski-4085/master.m3u8",
    "stream_type": "HLS",
    "source_website": "https://www.vail.com/",
    "status": "unknown"
  },
  {
    "id": "seed-04086",
    "camera_name": "Denver Highway Camera",
    "latitude": 39.693778,
    "longitude": -105.008638,
    "country": "United States",
    "state_or_region": "Colorado",
    "city": "Denver",
    "category": "traffic",
    "stream_url": "https://seedcams.us-webcam-monitor.local/united-states-colorado-denver-traffic-4086/master.m3u8",
    "stream_type": "HLS",
    "source_website": "https://maps.cotrip.org/",
    "status": "unknown"
  },
  {
    "id": "seed-04087",
    "camera_name": "Vail Sky Cam",
    "latitude": 39.60188,
    "longitude": -106.280009,
    "country": "United States",
    "state_or_region": "Colorado",
    "city": "Vail",
    "category": "weather",
    "stream_url": "https://seedcams.us-webcam-monitor.local/united-states-colorado-vail-weather-4087/master.m3u8",
    "stream_type": "HLS",
    "source_website": "https://weather.gov/",
    "status": "unknown"
  },
  {
    "id": "seed-04088",
    "camera_name": "Aspen Lift Cam",
    "latitude": 39.145145,
    "longitude": -106.860956,
    "country": "United States",
    "state_or_region": "Colorado",
    "city": "Aspen",
    "category": "ski",
    "stream_url": "https://seedcams.us-webcam-monitor.local/united-states-colorado-aspen-ski-4088/webcam",
    "stream_type": "EMBED",
    "source_website": "https://www.vail.com/",
    "status": "unknown"
  },
  {
    "id": "seed-04089",
    "camera_name": "Breckenridge Park Webcam",
    "latitude": 39.554964,
    "longitude": -106.151466,
    "country": "United States",
    "state_or_region": "Colorado",
    "city": "Breckenridge",
    "category": "park",
    "stream_url": "https://seedcams.us-webcam-monitor.local/united-states-colorado-breckenridge-park-4089/webcam",
    "stream_type": "EMBED",
    "source_website": "https://www.nps.gov/romo/index.htm",
    "status": "unknown"
  },
  {
    "id": "seed-04090",
    "camera_name": "Estes Park Highway Camera",
    "latitude": 40.345887,
    "longitude": -105.449957,
    "country": "United States",
    "state_or_region": "Colorado",
    "city": "Estes Park",
    "category": "traffic",
    "stream_url": "https://seedcams.us-webcam-monitor.local/united-states-colorado-estes-park-traffic-4090/master.m3u8",
    "stream_type": "HLS",
    "source_website": "https://maps.cotrip.org/",
    "status": "unknown"
  },
  {
    "id": "seed-04091",
    "camera_name": "Denver Boardwalk Cam",
    "latitude": 39.824229,
    "longitude": -105.066062,
    "country": "United States",
    "state_or_region": "Colorado",
    "city": "Denver",
    "category": "tourism",
    "stream_url": "https://seedcams.us-webcam-monitor.local/united-states-colorado-denver-tourism-4091/snapshot.jpg",
    "stream_type": "IMAGE",
    "source_website": "https://www.earthcam.com/",
    "status": "unknown"
  },
  {
    "id": "seed-04092",
    "camera_name": "Vail Conditions Cam",
    "latitude": 39.533306,
    "longitude": -106.399042,
    "country": "United States",
    "state_or_region": "Colorado",
    "city": "Vail",
    "category": "weather",
    "stream_url": "https://seedcams.us-webcam-monitor.local/united-states-colorado-vail-weather-4092/master.m3u8",
    "stream_type": "HLS",
    "source_website": "https://www.weatherbug.com/",
    "status": "unknown"
  },
  {
    "id": "seed-04093",
    "camera_name": "Aspen Weather Cam",
    "latitude": 39.126037,
    "longitude": -106.924612,
    "country": "United States",
    "state_or_region": "Colorado",
    "city": "Aspen",
    "category": "weather",
    "stream_url": "https://seedcams.us-webcam-monitor.local/united-states-colorado-aspen-weather-4093/video.mjpg",
    "stream_type": "MJPEG",
    "source_website": "https://weather.gov/",
    "status": "unknown"
  },
  {
    "id": "seed-04094",
    "camera_name": "Breckenridge Downtown Cam",
    "latitude": 39.400163,
    "longitude": -106.113583,
    "country": "United States",
    "state_or_region": "Colorado",
    "city": "Breckenridge",
    "category": "city",
    "stream_url": "https://seedcams.us-webcam-monitor.local/united-states-colorado-breckenridge-city-4094/snapshot.jpg",
    "stream_type": "IMAGE",
    "source_website": "https://www.skylinewebcams.com/",
    "status": "unknown"
  },
  {
    "id": "seed-04095",
    "camera_name": "Estes Park Interchange Cam",
    "latitude": 40.488387,
    "longitude": -105.450134,
    "country": "United States",
    "state_or_region": "Colorado",
    "city": "Estes Park",
    "category": "traffic",
    "stream_url": "https://seedcams.us-webcam-monitor.local/united-states-colorado-estes-park-traffic-4095/video.mjpg",
    "stream_type": "MJPEG",
    "source_website": "https://maps.cotrip.org/",
    "status": "unknown"
  },
  {
    "id": "seed-04096",
    "camera_name": "Denver Lift Cam",
    "latitude": 39.785748,
    "longitude": -104.996552,
    "country": "United States",
    "state_or_region": "Colorado",
    "city": "Denver",
    "category": "ski",
    "stream_url": "https://seedcams.us-webcam-monitor.local/united-states-colorado-denver-ski-4096/webcam",
    "stream_type": "EMBED",
    "source_website": "https://www.vail.com/",
    "status": "unknown"
  },
  {
    "id": "seed-04097",
    "camera_name": "Vail Weather Cam",
    "latitude": 39.667486,
    "longitude": -106.400566,
    "country": "United States",
    "state_or_region": "Colorado",
    "city": "Vail",
    "category": "weather",
    "stream_url": "https://seedcams.us-webcam-monitor.local/united-states-colorado-vail-weather-4097/master.m3u8",
    "stream_type": "HLS",
    "source_website": "https://weather.gov/",
    "status": "unknown"
  },
  {
    "id": "seed-04098",
    "camera_name": "Aspen Highway Camera",
    "latitude": 39.241294,
    "longitude": -106.91352,
    "country": "United States",
    "state_or_region": "Colorado",
    "city": "Aspen",
    "category": "traffic",
    "stream_url": "https://seedcams.us-webcam-monitor.local/united-states-colorado-aspen-traffic-4098/video.mjpg",
    "stream_type": "MJPEG",
    "source_website": "https://maps.cotrip.org/",
    "status": "unknown"
  },
  {
    "id": "seed-04099",
    "camera_name": "Breckenridge Sky Cam",
    "latitude": 39.482507,
    "longitude": -105.928829,
    "country": "United States",
    "state_or_region": "Colorado",
    "city": "Breckenridge",
    "category": "weather",
    "stream_url": "https://seedcams.us-webcam-monitor.local/united-states-colorado-breckenridge-weather-4099/camera",
    "stream_type": "UNKNOWN",
    "source_website": "https://weather.gov/",
    "status": "unknown"
  },
  {
    "id": "seed-04100",
    "camera_name": "Estes Park Lift Cam",
    "latitude": 40.350379,
    "longitude": -105.627308,
    "country": "United States",
    "state_or_region": "Colorado",
    "city": "Estes Park",
    "category": "ski",
    "stream_url": "https://seedcams.us-webcam-monitor.local/united-states-colorado-estes-park-ski-4100/snapshot.jpg",
    "stream_type": "IMAGE",
    "source_website": "https://www.vail.com/",
    "status": "unknown"
  },
  {
    "id": "seed-04101",
    "camera_name": "Denver Tourism Cam",
    "latitude": 39.622803,
    "longitude": -104.9964,
    "country": "United States",
    "state_or_region": "Colorado",
    "city": "Denver",
    "category": "tourism",
    "stream_url": "https://seedcams.us-webcam-monitor.local/united-states-colorado-denver-tourism-4101/camera",
    "stream_type": "UNKNOWN",
    "source_website": "https://www.earthcam.com/",
    "status": "unknown"
  },
  {
    "id": "seed-04102",
    "camera_name": "Vail Snow Cam",
    "latitude": 39.690932,
    "longitude": -106.256207,
    "country": "United States",
    "state_or_region": "Colorado",
    "city": "Vail",
    "category": "ski",
    "stream_url": "https://seedcams.us-webcam-monitor.local/united-states-colorado-vail-ski-4102/snapshot.jpg",
    "stream_type": "IMAGE",
    "source_website": "https://www.vail.com/",
    "status": "unknown"
  },
  {
    "id": "seed-04103",
    "camera_name": "Aspen Interchange Cam",
    "latitude": 39.112593,
    "longitude": -106.794574,
    "country": "United States",
    "state_or_region": "Colorado",
    "city": "Aspen",
    "category": "traffic",
    "stream_url": "https://seedcams.us-webcam-monitor.local/united-states-colorado-aspen-traffic-4103/master.m3u8",
    "stream_type": "HLS",
    "source_website": "https://maps.cotrip.org/",
    "status": "unknown"
  },
  {
    "id": "seed-04104",
    "camera_name": "Breckenridge Village Cam",
    "latitude": 39.550242,
    "longitude": -106.155131,
    "country": "United States",
    "state_or_region": "Colorado",
    "city": "Breckenridge",
    "category": "town",
    "stream_url": "https://seedcams.us-webcam-monitor.local/united-states-colorado-breckenridge-town-4104/webcam",
    "stream_type": "EMBED",
    "source_website": "https://www.visit-europe.com/",
    "status": "unknown"
  },
  {
    "id": "seed-04105",
    "camera_name": "Estes Park Tourism Cam",
    "latitude": 40.495812,
    "longitude": -105.543648,
    "country": "United States",
    "state_or_region": "Colorado",
    "city": "Estes Park",
    "category": "tourism",
    "stream_url": "https://seedcams.us-webcam-monitor.local/united-states-colorado-estes-park-tourism-4105/master.m3u8",
    "stream_type": "HLS",
    "source_website": "https://www.earthcam.com/",
    "status": "unknown"
  },
  {
    "id": "seed-04106",
    "camera_name": "Denver Nature Cam",
    "latitude": 39.814077,
    "longitude": -105.092026,
    "country": "United States",
    "state_or_region": "Colorado",
    "city": "Denver",
    "category": "park",
    "stream_url": "https://seedcams.us-webcam-monitor.local/united-states-colorado-denver-park-4106/snapshot.jpg",
    "stream_type": "IMAGE",
    "source_website": "https://www.nps.gov/romo/index.htm",
    "status": "unknown"
  },
  {
    "id": "seed-04107",
    "camera_name": "Vail City Center Webcam",
    "latitude": 39.533133,
    "longitude": -106.367297,
    "country": "United States",
    "state_or_region": "Colorado",
    "city": "Vail",
    "category": "city",
    "stream_url": "https://seedcams.us-webcam-monitor.local/united-states-colorado-vail-city-4107/camera",
    "stream_type": "UNKNOWN",
    "source_website": "https://www.earthcam.com/",
    "status": "unknown"
  },
  {
    "id": "seed-04108",
    "camera_name": "Aspen Scenic Cam",
    "latitude": 39.185993,
    "longitude": -106.882786,
    "country": "United States",
    "state_or_region": "Colorado",
    "city": "Aspen",
    "category": "park",
    "stream_url": "https://seedcams.us-webcam-monitor.local/united-states-colorado-aspen-park-4108/webcam",
    "stream_type": "EMBED",
    "source_website": "https://www.nps.gov/romo/index.htm",
    "status": "unknown"
  },
  {
    "id": "seed-04109",
    "camera_name": "Breckenridge Weather Cam",
    "latitude": 39.454309,
    "longitude": -105.977786,
    "country": "United States",
    "state_or_region": "Colorado",
    "city": "Breckenridge",
    "category": "weather",
    "stream_url": "https://seedcams.us-webcam-monitor.local/united-states-colorado-breckenridge-weather-4109/video.mjpg",
    "stream_type": "MJPEG",
    "source_website": "https://weather.gov/",
    "status": "unknown"
  },
  {
    "id": "seed-04110",
    "camera_name": "Estes Park Highway Camera",
    "latitude": 40.490889,
    "longitude": -105.489166,
    "country": "United States",
    "state_or_region": "Colorado",
    "city": "Estes Park",
    "category": "traffic",
    "stream_url": "https://seedcams.us-webcam-monitor.local/united-states-colorado-estes-park-traffic-4110/snapshot.jpg",
    "stream_type": "IMAGE",
    "source_website": "https://maps.cotrip.org/",
    "status": "unknown"
  },
  {
    "id": "seed-04111",
    "camera_name": "Denver Sky Cam",
    "latitude": 39.742573,
    "longitude": -105.035957,
    "country": "United States",
    "state_or_region": "Colorado",
    "city": "Denver",
    "category": "weather",
    "stream_url": "https://seedcams.us-webcam-monitor.local/united-states-colorado-denver-weather-4111/snapshot.jpg",
    "stream_type": "IMAGE",
    "source_website": "https://weather.gov/",
    "status": "unknown"
  },
  {
    "id": "seed-04112",
    "camera_name": "Vail Road Watch Cam",
    "latitude": 39.700583,
    "longitude": -106.373369,
    "country": "United States",
    "state_or_region": "Colorado",
    "city": "Vail",
    "category": "traffic",
    "stream_url": "https://seedcams.us-webcam-monitor.local/united-states-colorado-vail-traffic-4112/snapshot.jpg",
    "stream_type": "IMAGE",
    "source_website": "https://maps.cotrip.org/",
    "status": "unknown"
  },
  {
    "id": "seed-04113",
    "camera_name": "Aspen Tourism Cam",
    "latitude": 39.251681,
    "longitude": -106.709494,
    "country": "United States",
    "state_or_region": "Colorado",
    "city": "Aspen",
    "category": "tourism",
    "stream_url": "https://seedcams.us-webcam-monitor.local/united-states-colorado-aspen-tourism-4113/master.m3u8",
    "stream_type": "HLS",
    "source_website": "https://www.earthcam.com/",
    "status": "unknown"
  },
  {
    "id": "seed-04114",
    "camera_name": "Breckenridge Highway Camera",
    "latitude": 39.464717,
    "longitude": -106.085079,
    "country": "United States",
    "state_or_region": "Colorado",
    "city": "Breckenridge",
    "category": "traffic",
    "stream_url": "https://seedcams.us-webcam-monitor.local/united-states-colorado-breckenridge-traffic-4114/snapshot.jpg",
    "stream_type": "IMAGE",
    "source_website": "https://maps.cotrip.org/",
    "status": "unknown"
  },
  {
    "id": "seed-04115",
    "camera_name": "Estes Park Sky Cam",
    "latitude": 40.338449,
    "longitude": -105.606746,
    "country": "United States",
    "state_or_region": "Colorado",
    "city": "Estes Park",
    "category": "weather",
    "stream_url": "https://seedcams.us-webcam-monitor.local/united-states-colorado-estes-park-weather-4115/video.mjpg",
    "stream_type": "MJPEG",
    "source_website": "https://weather.gov/",
    "status": "unknown"
  },
  {
    "id": "seed-04116",
    "camera_name": "Denver Road Watch Cam",
    "latitude": 39.645937,
    "longitude": -104.883629,
    "country": "United States",
    "state_or_region": "Colorado",
    "city": "Denver",
    "category": "traffic",
    "stream_url": "https://seedcams.us-webcam-monitor.local/united-states-colorado-denver-traffic-4116/master.m3u8",
    "stream_type": "HLS",
    "source_website": "https://maps.cotrip.org/",
    "status": "unknown"
  },
  {
    "id": "seed-04117",
    "camera_name": "Vail Traffic Camera",
    "latitude": 39.627688,
    "longitude": -106.30946,
    "country": "United States",
    "state_or_region": "Colorado",
    "city": "Vail",
    "category": "traffic",
    "stream_url": "https://seedcams.us-webcam-monitor.local/united-states-colorado-vail-traffic-4117/master.m3u8",
    "stream_type": "HLS",
    "source_website": "https://maps.cotrip.org/",
    "status": "unknown"
  },
  {
    "id": "seed-04118",
    "camera_name": "Aspen Snow Cam",
    "latitude": 39.305616,
    "longitude": -106.773779,
    "country": "United States",
    "state_or_region": "Colorado",
    "city": "Aspen",
    "category": "ski",
    "stream_url": "https://seedcams.us-webcam-monitor.local/united-states-colorado-aspen-ski-4118/webcam",
    "stream_type": "EMBED",
    "source_website": "https://www.vail.com/",
    "status": "unknown"
  },
  {
    "id": "seed-04119",
    "camera_name": "Breckenridge Base Area Cam",
    "latitude": 39.382068,
    "longitude": -106.053187,
    "country": "United States",
    "state_or_region": "Colorado",
    "city": "Breckenridge",
    "category": "ski",
    "stream_url": "https://seedcams.us-webcam-monitor.local/united-states-colorado-breckenridge-ski-4119/webcam",
    "stream_type": "EMBED",
    "source_website": "https://www.vail.com/",
    "status": "unknown"
  },
  {
    "id": "seed-04120",
    "camera_name": "Estes Park Live View Cam",
    "latitude": 40.315495,
    "longitude": -105.571267,
    "country": "United States",
    "state_or_region": "Colorado",
    "city": "Estes Park",
    "category": "tourism",
    "stream_url": "https://seedcams.us-webcam-monitor.local/united-states-colorado-estes-park-tourism-4120/snapshot.jpg",
    "stream_type": "IMAGE",
    "source_website": "https://www.skylinewebcams.com/",
    "status": "unknown"
  },
  {
    "id": "seed-04121",
    "camera_name": "Denver Skyline Cam",
    "latitude": 39.736628,
    "longitude": -105.102931,
    "country": "United States",
    "state_or_region": "Colorado",
    "city": "Denver",
    "category": "city",
    "stream_url": "https://seedcams.us-webcam-monitor.local/united-states-colorado-denver-city-4121/snapshot.jpg",
    "stream_type": "IMAGE",
    "source_website": "https://www.earthcam.com/",
    "status": "unknown"
  },
  {
    "id": "seed-04122",
    "camera_name": "Vail Landmark Webcam",
    "latitude": 39.611382,
    "longitude": -106.453468,
    "country": "United States",
    "state_or_region": "Colorado",
    "city": "Vail",
    "category": "tourism",
    "stream_url": "https://seedcams.us-webcam-monitor.local/united-states-colorado-vail-tourism-4122/master.m3u8",
    "stream_type": "HLS",
    "source_website": "https://www.skylinewebcams.com/",
    "status": "unknown"
  },
  {
    "id": "seed-04123",
    "camera_name": "Aspen Interchange Cam",
    "latitude": 39.242512,
    "longitude": -106.780287,
    "country": "United States",
    "state_or_region": "Colorado",
    "city": "Aspen",
    "category": "traffic",
    "stream_url": "https://seedcams.us-webcam-monitor.local/united-states-colorado-aspen-traffic-4123/snapshot.jpg",
    "stream_type": "IMAGE",
    "source_website": "https://maps.cotrip.org/",
    "status": "unknown"
  },
  {
    "id": "seed-04124",
    "camera_name": "Breckenridge Road Watch Cam",
    "latitude": 39.507318,
    "longitude": -106.065514,
    "country": "United States",
    "state_or_region": "Colorado",
    "city": "Breckenridge",
    "category": "traffic",
    "stream_url": "https://seedcams.us-webcam-monitor.local/united-states-colorado-breckenridge-traffic-4124/master.m3u8",
    "stream_type": "HLS",
    "source_website": "https://maps.cotrip.org/",
    "status": "unknown"
  },
  {
    "id": "seed-04125",
    "camera_name": "Estes Park Park Webcam",
    "latitude": 40.336148,
    "longitude": -105.489218,
    "country": "United States",
    "state_or_region": "Colorado",
    "city": "Estes Park",
    "category": "park",
    "stream_url": "https://seedcams.us-webcam-monitor.local/united-states-colorado-estes-park-park-4125/snapshot.jpg",
    "stream_type": "IMAGE",
    "source_website": "https://www.nps.gov/romo/index.htm",
    "status": "unknown"
  },
  {
    "id": "seed-04126",
    "camera_name": "Denver Highway Camera",
    "latitude": 39.809478,
    "longitude": -105.055209,
    "country": "United States",
    "state_or_region": "Colorado",
    "city": "Denver",
    "category": "traffic",
    "stream_url": "https://seedcams.us-webcam-monitor.local/united-states-colorado-denver-traffic-4126/snapshot.jpg",
    "stream_type": "IMAGE",
    "source_website": "https://maps.cotrip.org/",
    "status": "unknown"
  },
  {
    "id": "seed-04127",
    "camera_name": "Vail City Center Webcam",
    "latitude": 39.555058,
    "longitude": -106.344409,
    "country": "United States",
    "state_or_region": "Colorado",
    "city": "Vail",
    "category": "city",
    "stream_url": "https://seedcams.us-webcam-monitor.local/united-states-colorado-vail-city-4127/webcam",
    "stream_type": "EMBED",
    "source_website": "https://www.earthcam.com/",
    "status": "unknown"
  },
  {
    "id": "seed-04128",
    "camera_name": "Aspen Scenic Cam",
    "latitude": 39.282563,
    "longitude": -106.934664,
    "country": "United States",
    "state_or_region": "Colorado",
    "city": "Aspen",
    "category": "park",
    "stream_url": "https://seedcams.us-webcam-monitor.local/united-states-colorado-aspen-park-4128/camera",
    "stream_type": "UNKNOWN",
    "source_website": "https://www.nps.gov/romo/index.htm",
    "status": "unknown"
  },
  {
    "id": "seed-04129",
    "camera_name": "Breckenridge Tourism Cam",
    "latitude": 39.550781,
    "longitude": -105.980726,
    "country": "United States",
    "state_or_region": "Colorado",
    "city": "Breckenridge",
    "category": "tourism",
    "stream_url": "https://seedcams.us-webcam-monitor.local/united-states-colorado-breckenridge-tourism-4129/camera",
    "stream_type": "UNKNOWN",
    "source_website": "https://www.earthcam.com/",
    "status": "unknown"
  },
  {
    "id": "seed-04130",
    "camera_name": "Estes Park Snow Cam",
    "latitude": 40.352321,
    "longitude": -105.527899,
    "country": "United States",
    "state_or_region": "Colorado",
    "city": "Estes Park",
    "category": "ski",
    "stream_url": "https://seedcams.us-webcam-monitor.local/united-states-colorado-estes-park-ski-4130/webcam",
    "stream_type": "EMBED",
    "source_website": "https://www.vail.com/",
    "status": "unknown"
  },
  {
    "id": "seed-04131",
    "camera_name": "Denver Wildlife Cam",
    "latitude": 39.821414,
    "longitude": -105.027418,
    "country": "United States",
    "state_or_region": "Colorado",
    "city": "Denver",
    "category": "park",
    "stream_url": "https://seedcams.us-webcam-monitor.local/united-states-colorado-denver-park-4131/camera",
    "stream_type": "UNKNOWN",
    "source_website": "https://www.nps.gov/romo/index.htm",
    "status": "unknown"
  },
  {
    "id": "seed-04132",
    "camera_name": "Vail Road Watch Cam",
    "latitude": 39.74033,
    "longitude": -106.264877,
    "country": "United States",
    "state_or_region": "Colorado",
    "city": "Vail",
    "category": "traffic",
    "stream_url": "https://seedcams.us-webcam-monitor.local/united-states-colorado-vail-traffic-4132/video.mjpg",
    "stream_type": "MJPEG",
    "source_website": "https://maps.cotrip.org/",
    "status": "unknown"
  },
  {
    "id": "seed-04133",
    "camera_name": "Aspen Park Webcam",
    "latitude": 39.269304,
    "longitude": -106.887036,
    "country": "United States",
    "state_or_region": "Colorado",
    "city": "Aspen",
    "category": "park",
    "stream_url": "https://seedcams.us-webcam-monitor.local/united-states-colorado-aspen-park-4133/snapshot.jpg",
    "stream_type": "IMAGE",
    "source_website": "https://www.nps.gov/romo/index.htm",
    "status": "unknown"
  },
  {
    "id": "seed-04134",
    "camera_name": "Breckenridge Snow Cam",
    "latitude": 39.37753,
    "longitude": -106.013736,
    "country": "United States",
    "state_or_region": "Colorado",
    "city": "Breckenridge",
    "category": "ski",
    "stream_url": "https://seedcams.us-webcam-monitor.local/united-states-colorado-breckenridge-ski-4134/snapshot.jpg",
    "stream_type": "IMAGE",
    "source_website": "https://www.vail.com/",
    "status": "unknown"
  },
  {
    "id": "seed-04135",
    "camera_name": "Estes Park Wildlife Cam",
    "latitude": 40.389793,
    "longitude": -105.637963,
    "country": "United States",
    "state_or_region": "Colorado",
    "city": "Estes Park",
    "category": "park",
    "stream_url": "https://seedcams.us-webcam-monitor.local/united-states-colorado-estes-park-park-4135/webcam",
    "stream_type": "EMBED",
    "source_website": "https://www.nps.gov/romo/index.htm",
    "status": "unknown"
  },
  {
    "id": "seed-04136",
    "camera_name": "Denver Main Street Cam",
    "latitude": 39.811309,
    "longitude": -104.949616,
    "country": "United States",
    "state_or_region": "Colorado",
    "city": "Denver",
    "category": "city",
    "stream_url": "https://seedcams.us-webcam-monitor.local/united-states-colorado-denver-city-4136/snapshot.jpg",
    "stream_type": "IMAGE",
    "source_website": "https://www.skylinewebcams.com/",
    "status": "unknown"
  },
  {
    "id": "seed-04137",
    "camera_name": "Vail Park Webcam",
    "latitude": 39.5556,
    "longitude": -106.384642,
    "country": "United States",
    "state_or_region": "Colorado",
    "city": "Vail",
    "category": "park",
    "stream_url": "https://seedcams.us-webcam-monitor.local/united-states-colorado-vail-park-4137/master.m3u8",
    "stream_type": "HLS",
    "source_website": "https://www.nps.gov/romo/index.htm",
    "status": "unknown"
  },
  {
    "id": "seed-04138",
    "camera_name": "Aspen Snow Cam",
    "latitude": 39.280892,
    "longitude": -106.761018,
    "country": "United States",
    "state_or_region": "Colorado",
    "city": "Aspen",
    "category": "ski",
    "stream_url": "https://seedcams.us-webcam-monitor.local/united-states-colorado-aspen-ski-4138/snapshot.jpg",
    "stream_type": "IMAGE",
    "source_website": "https://www.vail.com/",
    "status": "unknown"
  },
  {
    "id": "seed-04139",
    "camera_name": "Breckenridge Boardwalk Cam",
    "latitude": 39.46384,
    "longitude": -106.017682,
    "country": "United States",
    "state_or_region": "Colorado",
    "city": "Breckenridge",
    "category": "tourism",
    "stream_url": "https://seedcams.us-webcam-monitor.local/united-states-colorado-breckenridge-tourism-4139/master.m3u8",
    "stream_type": "HLS",
    "source_website": "https://www.earthcam.com/",
    "status": "unknown"
  },
  {
    "id": "seed-04140",
    "camera_name": "Estes Park Lift Cam",
    "latitude": 40.470014,
    "longitude": -105.475956,
    "country": "United States",
    "state_or_region": "Colorado",
    "city": "Estes Park",
    "category": "ski",
    "stream_url": "https://seedcams.us-webcam-monitor.local/united-states-colorado-estes-park-ski-4140/master.m3u8",
    "stream_type": "HLS",
    "source_website": "https://www.vail.com/",
    "status": "unknown"
  },
  {
    "id": "seed-04141",
    "camera_name": "Denver Traffic Camera",
    "latitude": 39.69468,
    "longitude": -104.971394,
    "country": "United States",
    "state_or_region": "Colorado",
    "city": "Denver",
    "category": "traffic",
    "stream_url": "https://seedcams.us-webcam-monitor.local/united-states-colorado-denver-traffic-4141/camera",
    "stream_type": "UNKNOWN",
    "source_website": "https://maps.cotrip.org/",
    "status": "unknown"
  },
  {
    "id": "seed-04142",
    "camera_name": "Vail Highway Camera",
    "latitude": 39.586118,
    "longitude": -106.386341,
    "country": "United States",
    "state_or_region": "Colorado",
    "city": "Vail",
    "category": "traffic",
    "stream_url": "https://seedcams.us-webcam-monitor.local/united-states-colorado-vail-traffic-4142/snapshot.jpg",
    "stream_type": "IMAGE",
    "source_website": "https://maps.cotrip.org/",
    "status": "unknown"
  },
  {
    "id": "seed-04143",
    "camera_name": "Aspen Interchange Cam",
    "latitude": 39.079843,
    "longitude": -106.91601,
    "country": "United States",
    "state_or_region": "Colorado",
    "city": "Aspen",
    "category": "traffic",
    "stream_url": "https://seedcams.us-webcam-monitor.local/united-states-colorado-aspen-traffic-4143/snapshot.jpg",
    "stream_type": "IMAGE",
    "source_website": "https://maps.cotrip.org/",
    "status": "unknown"
  },
  {
    "id": "seed-04144",
    "camera_name": "Breckenridge Main Street Cam",
    "latitude": 39.541148,
    "longitude": -106.066879,
    "country": "United States",
    "state_or_region": "Colorado",
    "city": "Breckenridge",
    "category": "city",
    "stream_url": "https://seedcams.us-webcam-monitor.local/united-states-colorado-breckenridge-city-4144/webcam",
    "stream_type": "EMBED",
    "source_website": "https://www.skylinewebcams.com/",
    "status": "unknown"
  },
  {
    "id": "seed-04145",
    "camera_name": "Estes Park Park Webcam",
    "latitude": 40.474294,
    "longitude": -105.442106,
    "country": "United States",
    "state_or_region": "Colorado",
    "city": "Estes Park",
    "category": "park",
    "stream_url": "https://seedcams.us-webcam-monitor.local/united-states-colorado-estes-park-park-4145/snapshot.jpg",
    "stream_type": "IMAGE",
    "source_website": "https://www.nps.gov/romo/index.htm",
    "status": "unknown"
  },
  {
    "id": "seed-04146",
    "camera_name": "Denver Downtown Cam",
    "latitude": 39.658256,
    "longitude": -105.053788,
    "country": "United States",
    "state_or_region": "Colorado",
    "city": "Denver",
    "category": "city",
    "stream_url": "https://seedcams.us-webcam-monitor.local/united-states-colorado-denver-city-4146/webcam",
    "stream_type": "EMBED",
    "source_website": "https://www.skylinewebcams.com/",
    "status": "unknown"
  },
  {
    "id": "seed-04147",
    "camera_name": "Vail Base Area Cam",
    "latitude": 39.754489,
    "longitude": -106.257721,
    "country": "United States",
    "state_or_region": "Colorado",
    "city": "Vail",
    "category": "ski",
    "stream_url": "https://seedcams.us-webcam-monitor.local/united-states-colorado-vail-ski-4147/master.m3u8",
    "stream_type": "HLS",
    "source_website": "https://www.vail.com/",
    "status": "unknown"
  },
  {
    "id": "seed-04148",
    "camera_name": "Aspen Main Street Cam",
    "latitude": 39.165155,
    "longitude": -106.741441,
    "country": "United States",
    "state_or_region": "Colorado",
    "city": "Aspen",
    "category": "city",
    "stream_url": "https://seedcams.us-webcam-monitor.local/united-states-colorado-aspen-city-4148/webcam",
    "stream_type": "EMBED",
    "source_website": "https://www.skylinewebcams.com/",
    "status": "unknown"
  },
  {
    "id": "seed-04149",
    "camera_name": "Breckenridge Town Square Cam",
    "latitude": 39.597717,
    "longitude": -106.034301,
    "country": "United States",
    "state_or_region": "Colorado",
    "city": "Breckenridge",
    "category": "town",
    "stream_url": "https://seedcams.us-webcam-monitor.local/united-states-colorado-breckenridge-town-4149/video.mjpg",
    "stream_type": "MJPEG",
    "source_website": "https://www.earthcam.com/",
    "status": "unknown"
  },
  {
    "id": "seed-04150",
    "camera_name": "Estes Park Snow Cam",
    "latitude": 40.395938,
    "longitude": -105.41991,
    "country": "United States",
    "state_or_region": "Colorado",
    "city": "Estes Park",
    "category": "ski",
    "stream_url": "https://seedcams.us-webcam-monitor.local/united-states-colorado-estes-park-ski-4150/master.m3u8",
    "stream_type": "HLS",
    "source_website": "https://www.vail.com/",
    "status": "unknown"
  },
  {
    "id": "seed-04151",
    "camera_name": "Denver Interchange Cam",
    "latitude": 39.815091,
    "longitude": -105.106723,
    "country": "United States",
    "state_or_region": "Colorado",
    "city": "Denver",
    "category": "traffic",
    "stream_url": "https://seedcams.us-webcam-monitor.local/united-states-colorado-denver-traffic-4151/video.mjpg",
    "stream_type": "MJPEG",
    "source_website": "https://maps.cotrip.org/",
    "status": "unknown"
  },
  {
    "id": "seed-04152",
    "camera_name": "Vail Scenic Cam",
    "latitude": 39.524207,
    "longitude": -106.3282,
    "country": "United States",
    "state_or_region": "Colorado",
    "city": "Vail",
    "category": "park",
    "stream_url": "https://seedcams.us-webcam-monitor.local/united-states-colorado-vail-park-4152/camera",
    "stream_type": "UNKNOWN",
    "source_website": "https://www.nps.gov/romo/index.htm",
    "status": "unknown"
  },
  {
    "id": "seed-04153",
    "camera_name": "Aspen Weather Cam",
    "latitude": 39.098607,
    "longitude": -106.71909,
    "country": "United States",
    "state_or_region": "Colorado",
    "city": "Aspen",
    "category": "weather",
    "stream_url": "https://seedcams.us-webcam-monitor.local/united-states-colorado-aspen-weather-4153/snapshot.jpg",
    "stream_type": "IMAGE",
    "source_website": "https://weather.gov/",
    "status": "unknown"
  },
  {
    "id": "seed-04154",
    "camera_name": "Breckenridge Snow Cam",
    "latitude": 39.522854,
    "longitude": -106.024454,
    "country": "United States",
    "state_or_region": "Colorado",
    "city": "Breckenridge",
    "category": "ski",
    "stream_url": "https://seedcams.us-webcam-monitor.local/united-states-colorado-breckenridge-ski-4154/snapshot.jpg",
    "stream_type": "IMAGE",
    "source_website": "https://www.vail.com/",
    "status": "unknown"
  },
  {
    "id": "seed-04155",
    "camera_name": "Estes Park Boardwalk Cam",
    "latitude": 40.349896,
    "longitude": -105.639011,
    "country": "United States",
    "state_or_region": "Colorado",
    "city": "Estes Park",
    "category": "tourism",
    "stream_url": "https://seedcams.us-webcam-monitor.local/united-states-colorado-estes-park-tourism-4155/master.m3u8",
    "stream_type": "HLS",
    "source_website": "https://www.earthcam.com/",
    "status": "unknown"
  },
  {
    "id": "seed-04156",
    "camera_name": "Denver Road Watch Cam",
    "latitude": 39.708641,
    "longitude": -104.919054,
    "country": "United States",
    "state_or_region": "Colorado",
    "city": "Denver",
    "category": "traffic",
    "stream_url": "https://seedcams.us-webcam-monitor.local/united-states-colorado-denver-traffic-4156/video.mjpg",
    "stream_type": "MJPEG",
    "source_website": "https://maps.cotrip.org/",
    "status": "unknown"
  },
  {
    "id": "seed-04157",
    "camera_name": "Vail Park Webcam",
    "latitude": 39.576756,
    "longitude": -106.361472,
    "country": "United States",
    "state_or_region": "Colorado",
    "city": "Vail",
    "category": "park",
    "stream_url": "https://seedcams.us-webcam-monitor.local/united-states-colorado-vail-park-4157/camera",
    "stream_type": "UNKNOWN",
    "source_website": "https://www.nps.gov/romo/index.htm",
    "status": "unknown"
  },
  {
    "id": "seed-04158",
    "camera_name": "Aspen Main Street Cam",
    "latitude": 39.224977,
    "longitude": -106.917087,
    "country": "United States",
    "state_or_region": "Colorado",
    "city": "Aspen",
    "category": "town",
    "stream_url": "https://seedcams.us-webcam-monitor.local/united-states-colorado-aspen-town-4158/video.mjpg",
    "stream_type": "MJPEG",
    "source_website": "https://www.visit-europe.com/",
    "status": "unknown"
  },
  {
    "id": "seed-04159",
    "camera_name": "Breckenridge Base Area Cam",
    "latitude": 39.477521,
    "longitude": -106.057326,
    "country": "United States",
    "state_or_region": "Colorado",
    "city": "Breckenridge",
    "category": "ski",
    "stream_url": "https://seedcams.us-webcam-monitor.local/united-states-colorado-breckenridge-ski-4159/master.m3u8",
    "stream_type": "HLS",
    "source_website": "https://www.vail.com/",
    "status": "unknown"
  },
  {
    "id": "seed-04160",
    "camera_name": "Estes Park Main Street Cam",
    "latitude": 40.411163,
    "longitude": -105.594903,
    "country": "United States",
    "state_or_region": "Colorado",
    "city": "Estes Park",
    "category": "city",
    "stream_url": "https://seedcams.us-webcam-monitor.local/united-states-colorado-estes-park-city-4160/camera",
    "stream_type": "UNKNOWN",
    "source_website": "https://www.skylinewebcams.com/",
    "status": "unknown"
  },
  {
    "id": "seed-04161",
    "camera_name": "Denver Weather Cam",
    "latitude": 39.760488,
    "longitude": -104.910606,
    "country": "United States",
    "state_or_region": "Colorado",
    "city": "Denver",
    "category": "weather",
    "stream_url": "https://seedcams.us-webcam-monitor.local/united-states-colorado-denver-weather-4161/camera",
    "stream_type": "UNKNOWN",
    "source_website": "https://weather.gov/",
    "status": "unknown"
  },
  {
    "id": "seed-04162",
    "camera_name": "Vail Landmark Webcam",
    "latitude": 39.567953,
    "longitude": -106.308657,
    "country": "United States",
    "state_or_region": "Colorado",
    "city": "Vail",
    "category": "tourism",
    "stream_url": "https://seedcams.us-webcam-monitor.local/united-states-colorado-vail-tourism-4162/webcam",
    "stream_type": "EMBED",
    "source_website": "https://www.skylinewebcams.com/",
    "status": "unknown"
  },
  {
    "id": "seed-04163",
    "camera_name": "Aspen Interchange Cam",
    "latitude": 39.168127,
    "longitude": -106.893729,
    "country": "United States",
    "state_or_region": "Colorado",
    "city": "Aspen",
    "category": "traffic",
    "stream_url": "https://seedcams.us-webcam-monitor.local/united-states-colorado-aspen-traffic-4163/master.m3u8",
    "stream_type": "HLS",
    "source_website": "https://maps.cotrip.org/",
    "status": "unknown"
  },
  {
    "id": "seed-04164",
    "camera_name": "Breckenridge Conditions Cam",
    "latitude": 39.58813,
    "longitude": -105.929801,
    "country": "United States",
    "state_or_region": "Colorado",
    "city": "Breckenridge",
    "category": "weather",
    "stream_url": "https://seedcams.us-webcam-monitor.local/united-states-colorado-breckenridge-weather-4164/camera",
    "stream_type": "UNKNOWN",
    "source_website": "https://www.weatherbug.com/",
    "status": "unknown"
  },
  {
    "id": "seed-04165",
    "camera_name": "Estes Park Ski Resort Cam",
    "latitude": 40.275088,
    "longitude": -105.637009,
    "country": "United States",
    "state_or_region": "Colorado",
    "city": "Estes Park",
    "category": "ski",
    "stream_url": "https://seedcams.us-webcam-monitor.local/united-states-colorado-estes-park-ski-4165/snapshot.jpg",
    "stream_type": "IMAGE",
    "source_website": "https://www.vail.com/",
    "status": "unknown"
  },
  {
    "id": "seed-04166",
    "camera_name": "Denver Downtown Cam",
    "latitude": 39.852587,
    "longitude": -104.949874,
    "country": "United States",
    "state_or_region": "Colorado",
    "city": "Denver",
    "category": "city",
    "stream_url": "https://seedcams.us-webcam-monitor.local/united-states-colorado-denver-city-4166/webcam",
    "stream_type": "EMBED",
    "source_website": "https://www.skylinewebcams.com/",
    "status": "unknown"
  },
  {
    "id": "seed-04167",
    "camera_name": "Vail Base Area Cam",
    "latitude": 39.52343,
    "longitude": -106.338847,
    "country": "United States",
    "state_or_region": "Colorado",
    "city": "Vail",
    "category": "ski",
    "stream_url": "https://seedcams.us-webcam-monitor.local/united-states-colorado-vail-ski-4167/master.m3u8",
    "stream_type": "HLS",
    "source_website": "https://www.vail.com/",
    "status": "unknown"
  },
  {
    "id": "seed-04168",
    "camera_name": "Aspen Village Cam",
    "latitude": 39.09187,
    "longitude": -106.915829,
    "country": "United States",
    "state_or_region": "Colorado",
    "city": "Aspen",
    "category": "town",
    "stream_url": "https://seedcams.us-webcam-monitor.local/united-states-colorado-aspen-town-4168/snapshot.jpg",
    "stream_type": "IMAGE",
    "source_website": "https://www.visit-europe.com/",
    "status": "unknown"
  },
  {
    "id": "seed-04169",
    "camera_name": "Breckenridge Tourism Cam",
    "latitude": 39.415651,
    "longitude": -106.090674,
    "country": "United States",
    "state_or_region": "Colorado",
    "city": "Breckenridge",
    "category": "tourism",
    "stream_url": "https://seedcams.us-webcam-monitor.local/united-states-colorado-breckenridge-tourism-4169/camera",
    "stream_type": "UNKNOWN",
    "source_website": "https://www.earthcam.com/",
    "status": "unknown"
  },
  {
    "id": "seed-04170",
    "camera_name": "Estes Park Landmark Webcam",
    "latitude": 40.281337,
    "longitude": -105.494312,
    "country": "United States",
    "state_or_region": "Colorado",
    "city": "Estes Park",
    "category": "tourism",
    "stream_url": "https://seedcams.us-webcam-monitor.local/united-states-colorado-estes-park-tourism-4170/master.m3u8",
    "stream_type": "HLS",
    "source_website": "https://www.skylinewebcams.com/",
    "status": "unknown"
  },
  {
    "id": "seed-04171",
    "camera_name": "Denver Intersection Cam",
    "latitude": 39.804582,
    "longitude": -104.997636,
    "country": "United States",
    "state_or_region": "Colorado",
    "city": "Denver",
    "category": "town",
    "stream_url": "https://seedcams.us-webcam-monitor.local/united-states-colorado-denver-town-4171/video.mjpg",
    "stream_type": "MJPEG",
    "source_website": "https://www.earthcam.com/",
    "status": "unknown"
  },
  {
    "id": "seed-04172",
    "camera_name": "Vail Lift Cam",
    "latitude": 39.705821,
    "longitude": -106.31175,
    "country": "United States",
    "state_or_region": "Colorado",
    "city": "Vail",
    "category": "ski",
    "stream_url": "https://seedcams.us-webcam-monitor.local/united-states-colorado-vail-ski-4172/master.m3u8",
    "stream_type": "HLS",
    "source_website": "https://www.vail.com/",
    "status": "unknown"
  },
  {
    "id": "seed-04173",
    "camera_name": "Aspen Ski Resort Cam",
    "latitude": 39.141708,
    "longitude": -106.903702,
    "country": "United States",
    "state_or_region": "Colorado",
    "city": "Aspen",
    "category": "ski",
    "stream_url": "https://seedcams.us-webcam-monitor.local/united-states-colorado-aspen-ski-4173/snapshot.jpg",
    "stream_type": "IMAGE",
    "source_website": "https://www.vail.com/",
    "status": "unknown"
  },
  {
    "id": "seed-04174",
    "camera_name": "Breckenridge Snow Cam",
    "latitude": 39.510939,
    "longitude": -106.120167,
    "country": "United States",
    "state_or_region": "Colorado",
    "city": "Breckenridge",
    "category": "ski",
    "stream_url": "https://seedcams.us-webcam-monitor.local/united-states-colorado-breckenridge-ski-4174/snapshot.jpg",
    "stream_type": "IMAGE",
    "source_website": "https://www.vail.com/",
    "status": "unknown"
  },
  {
    "id": "seed-04175",
    "camera_name": "Estes Park Base Area Cam",
    "latitude": 40.383909,
    "longitude": -105.512115,
    "country": "United States",
    "state_or_region": "Colorado",
    "city": "Estes Park",
    "category": "ski",
    "stream_url": "https://seedcams.us-webcam-monitor.local/united-states-colorado-estes-park-ski-4175/webcam",
    "stream_type": "EMBED",
    "source_website": "https://www.vail.com/",
    "status": "unknown"
  },
  {
    "id": "seed-04176",
    "camera_name": "Denver Lift Cam",
    "latitude": 39.771667,
    "longitude": -105.081905,
    "country": "United States",
    "state_or_region": "Colorado",
    "city": "Denver",
    "category": "ski",
    "stream_url": "https://seedcams.us-webcam-monitor.local/united-states-colorado-denver-ski-4176/snapshot.jpg",
    "stream_type": "IMAGE",
    "source_website": "https://www.vail.com/",
    "status": "unknown"
  },
  {
    "id": "seed-04177",
    "camera_name": "Vail Ski Resort Cam",
    "latitude": 39.674101,
    "longitude": -106.306619,
    "country": "United States",
    "state_or_region": "Colorado",
    "city": "Vail",
    "category": "ski",
    "stream_url": "https://seedcams.us-webcam-monitor.local/united-states-colorado-vail-ski-4177/snapshot.jpg",
    "stream_type": "IMAGE",
    "source_website": "https://www.vail.com/",
    "status": "unknown"
  },
  {
    "id": "seed-04178",
    "camera_name": "Aspen Highway Camera",
    "latitude": 39.263784,
    "longitude": -106.834599,
    "country": "United States",
    "state_or_region": "Colorado",
    "city": "Aspen",
    "category": "traffic",
    "stream_url": "https://seedcams.us-webcam-monitor.local/united-states-colorado-aspen-traffic-4178/video.mjpg",
    "stream_type": "MJPEG",
    "source_website": "https://maps.cotrip.org/",
    "status": "unknown"
  },
  {
    "id": "seed-04179",
    "camera_name": "Breckenridge Sky Cam",
    "latitude": 39.498344,
    "longitude": -105.94317,
    "country": "United States",
    "state_or_region": "Colorado",
    "city": "Breckenridge",
    "category": "weather",
    "stream_url": "https://seedcams.us-webcam-monitor.local/united-states-colorado-breckenridge-weather-4179/camera",
    "stream_type": "UNKNOWN",
    "source_website": "https://weather.gov/",
    "status": "unknown"
  },
  {
    "id": "seed-04180",
    "camera_name": "Estes Park Road Watch Cam",
    "latitude": 40.287561,
    "longitude": -105.415316,
    "country": "United States",
    "state_or_region": "Colorado",
    "city": "Estes Park",
    "category": "traffic",
    "stream_url": "https://seedcams.us-webcam-monitor.local/united-states-colorado-estes-park-traffic-4180/snapshot.jpg",
    "stream_type": "IMAGE",
    "source_website": "https://maps.cotrip.org/",
    "status": "unknown"
  },
  {
    "id": "seed-04181",
    "camera_name": "Denver Traffic Camera",
    "latitude": 39.80256,
    "longitude": -105.024258,
    "country": "United States",
    "state_or_region": "Colorado",
    "city": "Denver",
    "category": "traffic",
    "stream_url": "https://seedcams.us-webcam-monitor.local/united-states-colorado-denver-traffic-4181/master.m3u8",
    "stream_type": "HLS",
    "source_website": "https://maps.cotrip.org/",
    "status": "unknown"
  },
  {
    "id": "seed-04182",
    "camera_name": "Vail Landmark Webcam",
    "latitude": 39.658855,
    "longitude": -106.294751,
    "country": "United States",
    "state_or_region": "Colorado",
    "city": "Vail",
    "category": "tourism",
    "stream_url": "https://seedcams.us-webcam-monitor.local/united-states-colorado-vail-tourism-4182/snapshot.jpg",
    "stream_type": "IMAGE",
    "source_website": "https://www.skylinewebcams.com/",
    "status": "unknown"
  },
  {
    "id": "seed-04183",
    "camera_name": "Aspen Interchange Cam",
    "latitude": 39.305767,
    "longitude": -106.804709,
    "country": "United States",
    "state_or_region": "Colorado",
    "city": "Aspen",
    "category": "traffic",
    "stream_url": "https://seedcams.us-webcam-monitor.local/united-states-colorado-aspen-traffic-4183/video.mjpg",
    "stream_type": "MJPEG",
    "source_website": "https://maps.cotrip.org/",
    "status": "unknown"
  },
  {
    "id": "seed-04184",
    "camera_name": "Breckenridge Road Watch Cam",
    "latitude": 39.577057,
    "longitude": -106.069949,
    "country": "United States",
    "state_or_region": "Colorado",
    "city": "Breckenridge",
    "category": "traffic",
    "stream_url": "https://seedcams.us-webcam-monitor.local/united-states-colorado-breckenridge-traffic-4184/camera",
    "stream_type": "UNKNOWN",
    "source_website": "https://maps.cotrip.org/",
    "status": "unknown"
  },
  {
    "id": "seed-04185",
    "camera_name": "Estes Park Traffic Camera",
    "latitude": 40.367837,
    "longitude": -105.561153,
    "country": "United States",
    "state_or_region": "Colorado",
    "city": "Estes Park",
    "category": "traffic",
    "stream_url": "https://seedcams.us-webcam-monitor.local/united-states-colorado-estes-park-traffic-4185/video.mjpg",
    "stream_type": "MJPEG",
    "source_website": "https://maps.cotrip.org/",
    "status": "unknown"
  },
  {
    "id": "seed-04186",
    "camera_name": "Denver Storm Watch Cam",
    "latitude": 39.729737,
    "longitude": -105.00064,
    "country": "United States",
    "state_or_region": "Colorado",
    "city": "Denver",
    "category": "weather",
    "stream_url": "https://seedcams.us-webcam-monitor.local/united-states-colorado-denver-weather-4186/camera",
    "stream_type": "UNKNOWN",
    "source_website": "https://www.weatherbug.com/",
    "status": "unknown"
  },
  {
    "id": "seed-04187",
    "camera_name": "Vail City Center Webcam",
    "latitude": 39.553413,
    "longitude": -106.422969,
    "country": "United States",
    "state_or_region": "Colorado",
    "city": "Vail",
    "category": "city",
    "stream_url": "https://seedcams.us-webcam-monitor.local/united-states-colorado-vail-city-4187/snapshot.jpg",
    "stream_type": "IMAGE",
    "source_website": "https://www.earthcam.com/",
    "status": "unknown"
  },
  {
    "id": "seed-04188",
    "camera_name": "Aspen Lift Cam",
    "latitude": 39.094277,
    "longitude": -106.775986,
    "country": "United States",
    "state_or_region": "Colorado",
    "city": "Aspen",
    "category": "ski",
    "stream_url": "https://seedcams.us-webcam-monitor.local/united-states-colorado-aspen-ski-4188/webcam",
    "stream_type": "EMBED",
    "source_website": "https://www.vail.com/",
    "status": "unknown"
  },
  {
    "id": "seed-04189",
    "camera_name": "Breckenridge Tourism Cam",
    "latitude": 39.428979,
    "longitude": -106.012348,
    "country": "United States",
    "state_or_region": "Colorado",
    "city": "Breckenridge",
    "category": "tourism",
    "stream_url": "https://seedcams.us-webcam-monitor.local/united-states-colorado-breckenridge-tourism-4189/master.m3u8",
    "stream_type": "HLS",
    "source_website": "https://www.earthcam.com/",
    "status": "unknown"
  },
  {
    "id": "seed-04190",
    "camera_name": "Estes Park Snow Cam",
    "latitude": 40.361778,
    "longitude": -105.599214,
    "country": "United States",
    "state_or_region": "Colorado",
    "city": "Estes Park",
    "category": "ski",
    "stream_url": "https://seedcams.us-webcam-monitor.local/united-states-colorado-estes-park-ski-4190/camera",
    "stream_type": "UNKNOWN",
    "source_website": "https://www.vail.com/",
    "status": "unknown"
  },
  {
    "id": "seed-04191",
    "camera_name": "Denver Interchange Cam",
    "latitude": 39.699424,
    "longitude": -104.969268,
    "country": "United States",
    "state_or_region": "Colorado",
    "city": "Denver",
    "category": "traffic",
    "stream_url": "https://seedcams.us-webcam-monitor.local/united-states-colorado-denver-traffic-4191/camera",
    "stream_type": "UNKNOWN",
    "source_website": "https://maps.cotrip.org/",
    "status": "unknown"
  },
  {
    "id": "seed-04192",
    "camera_name": "Vail Lift Cam",
    "latitude": 39.731894,
    "longitude": -106.274981,
    "country": "United States",
    "state_or_region": "Colorado",
    "city": "Vail",
    "category": "ski",
    "stream_url": "https://seedcams.us-webcam-monitor.local/united-states-colorado-vail-ski-4192/webcam",
    "stream_type": "EMBED",
    "source_website": "https://www.vail.com/",
    "status": "unknown"
  },
  {
    "id": "seed-04193",
    "camera_name": "Aspen Park Webcam",
    "latitude": 39.135036,
    "longitude": -106.905846,
    "country": "United States",
    "state_or_region": "Colorado",
    "city": "Aspen",
    "category": "park",
    "stream_url": "https://seedcams.us-webcam-monitor.local/united-states-colorado-aspen-park-4193/webcam",
    "stream_type": "EMBED",
    "source_website": "https://www.nps.gov/romo/index.htm",
    "status": "unknown"
  },
  {
    "id": "seed-04194",
    "camera_name": "Breckenridge Landmark Webcam",
    "latitude": 39.432176,
    "longitude": -106.041734,
    "country": "United States",
    "state_or_region": "Colorado",
    "city": "Breckenridge",
    "category": "tourism",
    "stream_url": "https://seedcams.us-webcam-monitor.local/united-states-colorado-breckenridge-tourism-4194/webcam",
    "stream_type": "EMBED",
    "source_website": "https://www.skylinewebcams.com/",
    "status": "unknown"
  },
  {
    "id": "seed-04195",
    "camera_name": "Estes Park Boardwalk Cam",
    "latitude": 40.444281,
    "longitude": -105.611359,
    "country": "United States",
    "state_or_region": "Colorado",
    "city": "Estes Park",
    "category": "tourism",
    "stream_url": "https://seedcams.us-webcam-monitor.local/united-states-colorado-estes-park-tourism-4195/webcam",
    "stream_type": "EMBED",
    "source_website": "https://www.earthcam.com/",
    "status": "unknown"
  },
  {
    "id": "seed-04196",
    "camera_name": "Denver Live View Cam",
    "latitude": 39.821895,
    "longitude": -105.022179,
    "country": "United States",
    "state_or_region": "Colorado",
    "city": "Denver",
    "category": "tourism",
    "stream_url": "https://seedcams.us-webcam-monitor.local/united-states-colorado-denver-tourism-4196/webcam",
    "stream_type": "EMBED",
    "source_website": "https://www.skylinewebcams.com/",
    "status": "unknown"
  },
  {
    "id": "seed-04197",
    "camera_name": "Vail Tourism Cam",
    "latitude": 39.524635,
    "longitude": -106.317964,
    "country": "United States",
    "state_or_region": "Colorado",
    "city": "Vail",
    "category": "tourism",
    "stream_url": "https://seedcams.us-webcam-monitor.local/united-states-colorado-vail-tourism-4197/snapshot.jpg",
    "stream_type": "IMAGE",
    "source_website": "https://www.earthcam.com/",
    "status": "unknown"
  },
  {
    "id": "seed-04198",
    "camera_name": "Aspen Highway Camera",
    "latitude": 39.293182,
    "longitude": -106.721866,
    "country": "United States",
    "state_or_region": "Colorado",
    "city": "Aspen",
    "category": "traffic",
    "stream_url": "https://seedcams.us-webcam-monitor.local/united-states-colorado-aspen-traffic-4198/snapshot.jpg",
    "stream_type": "IMAGE",
    "source_website": "https://maps.cotrip.org/",
    "status": "unknown"
  },
  {
    "id": "seed-04199",
    "camera_name": "Breckenridge Sky Cam",
    "latitude": 39.471946,
    "longitude": -106.107695,
    "country": "United States",
    "state_or_region": "Colorado",
    "city": "Breckenridge",
    "category": "weather",
    "stream_url": "https://seedcams.us-webcam-monitor.local/united-states-colorado-breckenridge-weather-4199/camera",
    "stream_type": "UNKNOWN",
    "source_website": "https://weather.gov/",
    "status": "unknown"
  },
  {
    "id": "seed-04200",
    "camera_name": "Estes Park Road Watch Cam",
    "latitude": 40.370001,
    "longitude": -105.59907,
    "country": "United States",
    "state_or_region": "Colorado",
    "city": "Estes Park",
    "category": "traffic",
    "stream_url": "https://seedcams.us-webcam-monitor.local/united-states-colorado-estes-park-traffic-4200/master.m3u8",
    "stream_type": "HLS",
    "source_website": "https://maps.cotrip.org/",
    "status": "unknown"
  },
  {
    "id": "seed-04201",
    "camera_name": "Denver Traffic Camera",
    "latitude": 39.697944,
    "longitude": -104.937231,
    "country": "United States",
    "state_or_region": "Colorado",
    "city": "Denver",
    "category": "traffic",
    "stream_url": "https://seedcams.us-webcam-monitor.local/united-states-colorado-denver-traffic-4201/snapshot.jpg",
    "stream_type": "IMAGE",
    "source_website": "https://maps.cotrip.org/",
    "status": "unknown"
  },
  {
    "id": "seed-04202",
    "camera_name": "Vail Landmark Webcam",
    "latitude": 39.54165,
    "longitude": -106.369359,
    "country": "United States",
    "state_or_region": "Colorado",
    "city": "Vail",
    "category": "tourism",
    "stream_url": "https://seedcams.us-webcam-monitor.local/united-states-colorado-vail-tourism-4202/webcam",
    "stream_type": "EMBED",
    "source_website": "https://www.skylinewebcams.com/",
    "status": "unknown"
  },
  {
    "id": "seed-04203",
    "camera_name": "Aspen Intersection Cam",
    "latitude": 39.114964,
    "longitude": -106.772177,
    "country": "United States",
    "state_or_region": "Colorado",
    "city": "Aspen",
    "category": "town",
    "stream_url": "https://seedcams.us-webcam-monitor.local/united-states-colorado-aspen-town-4203/camera",
    "stream_type": "UNKNOWN",
    "source_website": "https://www.earthcam.com/",
    "status": "unknown"
  },
  {
    "id": "seed-04204",
    "camera_name": "Breckenridge Main Street Cam",
    "latitude": 39.3944,
    "longitude": -106.057676,
    "country": "United States",
    "state_or_region": "Colorado",
    "city": "Breckenridge",
    "category": "city",
    "stream_url": "https://seedcams.us-webcam-monitor.local/united-states-colorado-breckenridge-city-4204/master.m3u8",
    "stream_type": "HLS",
    "source_website": "https://www.skylinewebcams.com/",
    "status": "unknown"
  },
  {
    "id": "seed-04205",
    "camera_name": "Estes Park Weather Cam",
    "latitude": 40.479007,
    "longitude": -105.450938,
    "country": "United States",
    "state_or_region": "Colorado",
    "city": "Estes Park",
    "category": "weather",
    "stream_url": "https://seedcams.us-webcam-monitor.local/united-states-colorado-estes-park-weather-4205/camera",
    "stream_type": "UNKNOWN",
    "source_website": "https://weather.gov/",
    "status": "unknown"
  },
  {
    "id": "seed-04206",
    "camera_name": "Denver Storm Watch Cam",
    "latitude": 39.63334,
    "longitude": -105.025956,
    "country": "United States",
    "state_or_region": "Colorado",
    "city": "Denver",
    "category": "weather",
    "stream_url": "https://seedcams.us-webcam-monitor.local/united-states-colorado-denver-weather-4206/video.mjpg",
    "stream_type": "MJPEG",
    "source_website": "https://www.weatherbug.com/",
    "status": "unknown"
  },
  {
    "id": "seed-04207",
    "camera_name": "Vail Base Area Cam",
    "latitude": 39.74801,
    "longitude": -106.472248,
    "country": "United States",
    "state_or_region": "Colorado",
    "city": "Vail",
    "category": "ski",
    "stream_url": "https://seedcams.us-webcam-monitor.local/united-states-colorado-vail-ski-4207/snapshot.jpg",
    "stream_type": "IMAGE",
    "source_website": "https://www.vail.com/",
    "status": "unknown"
  },
  {
    "id": "seed-04208",
    "camera_name": "Aspen Lift Cam",
    "latitude": 39.2176,
    "longitude": -106.734978,
    "country": "United States",
    "state_or_region": "Colorado",
    "city": "Aspen",
    "category": "ski",
    "stream_url": "https://seedcams.us-webcam-monitor.local/united-states-colorado-aspen-ski-4208/camera",
    "stream_type": "UNKNOWN",
    "source_website": "https://www.vail.com/",
    "status": "unknown"
  },
  {
    "id": "seed-04209",
    "camera_name": "Breckenridge Tourism Cam",
    "latitude": 39.557608,
    "longitude": -106.137718,
    "country": "United States",
    "state_or_region": "Colorado",
    "city": "Breckenridge",
    "category": "tourism",
    "stream_url": "https://seedcams.us-webcam-monitor.local/united-states-colorado-breckenridge-tourism-4209/webcam",
    "stream_type": "EMBED",
    "source_website": "https://www.earthcam.com/",
    "status": "unknown"
  },
  {
    "id": "seed-04210",
    "camera_name": "Estes Park Highway Camera",
    "latitude": 40.468427,
    "longitude": -105.463172,
    "country": "United States",
    "state_or_region": "Colorado",
    "city": "Estes Park",
    "category": "traffic",
    "stream_url": "https://seedcams.us-webcam-monitor.local/united-states-colorado-estes-park-traffic-4210/video.mjpg",
    "stream_type": "MJPEG",
    "source_website": "https://maps.cotrip.org/",
    "status": "unknown"
  },
  {
    "id": "seed-04211",
    "camera_name": "Denver Wildlife Cam",
    "latitude": 39.809747,
    "longitude": -105.097522,
    "country": "United States",
    "state_or_region": "Colorado",
    "city": "Denver",
    "category": "park",
    "stream_url": "https://seedcams.us-webcam-monitor.local/united-states-colorado-denver-park-4211/camera",
    "stream_type": "UNKNOWN",
    "source_website": "https://www.nps.gov/romo/index.htm",
    "status": "unknown"
  },
  {
    "id": "seed-04212",
    "camera_name": "Vail Lift Cam",
    "latitude": 39.528179,
    "longitude": -106.477189,
    "country": "United States",
    "state_or_region": "Colorado",
    "city": "Vail",
    "category": "ski",
    "stream_url": "https://seedcams.us-webcam-monitor.local/united-states-colorado-vail-ski-4212/master.m3u8",
    "stream_type": "HLS",
    "source_website": "https://www.vail.com/",
    "status": "unknown"
  },
  {
    "id": "seed-04213",
    "camera_name": "Aspen Ski Resort Cam",
    "latitude": 39.074629,
    "longitude": -106.707825,
    "country": "United States",
    "state_or_region": "Colorado",
    "city": "Aspen",
    "category": "ski",
    "stream_url": "https://seedcams.us-webcam-monitor.local/united-states-colorado-aspen-ski-4213/master.m3u8",
    "stream_type": "HLS",
    "source_website": "https://www.vail.com/",
    "status": "unknown"
  },