[
  {
    "id": "seed-04501",
    "camera_name": "Moab Base Area Cam",
    "latitude": 38.668625,
    "longitude": -109.533221,
    "country": "United States",
    "state_or_region": "Utah",
    "city": "Moab",
    "category": "ski",
    "stream_url": "https://seedcams.us-webcam-monitor.local/united-states-utah-moab-ski-4501/webcam",
    "stream_type": "EMBED",
    "source_website": "https://www.snowbird.com/",
    "status": "unknown"
  },
  {
    "id": "seed-04502",
    "camera_name": "Springdale Scenic Cam",
    "latitude": 37.299123,
    "longitude": -113.081882,
    "country": "United States",
    "state_or_region": "Utah",
    "city": "Springdale",
    "category": "park",
    "stream_url": "https://seedcams.us-webcam-monitor.local/united-states-utah-springdale-park-4502/webcam",
    "stream_type": "EMBED",
    "source_website": "https://www.nps.gov/zion/index.htm",
    "status": "unknown"
  },
  {
    "id": "seed-04503",
    "camera_name": "Salt Lake City Tourism Cam",
    "latitude": 40.799839,
    "longitude": -111.894049,
    "country": "United States",
    "state_or_region": "Utah",
    "city": "Salt Lake City",
    "category": "tourism",
    "stream_url": "https://seedcams.us-webcam-monitor.local/united-states-utah-salt-lake-city-tourism-4503/webcam",
    "stream_type": "EMBED",
    "source_website": "https://www.earthcam.com/",
    "status": "unknown"
  },
  {
    "id": "seed-04504",
    "camera_name": "Park City Landmark Webcam",
    "latitude": 40.589339,
    "longitude": -111.379549,
    "country": "United States",
    "state_or_region": "Utah",
    "city": "Park City",
    "category": "tourism",
    "stream_url": "https://seedcams.us-webcam-monitor.local/united-states-utah-park-city-tourism-4504/webcam",
    "stream_type": "EMBED",
    "source_website": "https://www.skylinewebcams.com/",
    "status": "unknown"
  },
  {
    "id": "seed-04505",
    "camera_name": "Moab Wildlife Cam",
    "latitude": 38.467327,
    "longitude": -109.614989,
    "country": "United States",
    "state_or_region": "Utah",
    "city": "Moab",
    "category": "park",
    "stream_url": "https://seedcams.us-webcam-monitor.local/united-states-utah-moab-park-4505/camera",
    "stream_type": "UNKNOWN",
    "source_website": "https://www.nps.gov/zion/index.htm",
    "status": "unknown"
  },
  {
    "id": "seed-04506",
    "camera_name": "Springdale Live View Cam",
    "latitude": 37.29624,
    "longitude": -113.079391,
    "country": "United States",
    "state_or_region": "Utah",
    "city": "Springdale",
    "category": "tourism",
    "stream_url": "https://seedcams.us-webcam-monitor.local/united-states-utah-springdale-tourism-4506/snapshot.jpg",
    "stream_type": "IMAGE",
    "source_website": "https://www.skylinewebcams.com/",
    "status": "unknown"
  },
  {
    "id": "seed-04507",
    "camera_name": "Salt Lake City Tourism Cam",
    "latitude": 40.708079,
    "longitude": -111.917198,
    "country": "United States",
    "state_or_region": "Utah",
    "city": "Salt Lake City",
    "category": "tourism",
    "stream_url": "https://seedcams.us-webcam-monitor.local/united-states-utah-salt-lake-city-tourism-4507/snapshot.jpg",
    "stream_type": "IMAGE",
    "source_website": "https://www.earthcam.com/",
    "status": "unknown"
  },
  {
    "id": "seed-04508",
    "camera_name": "Park City Highway Camera",
    "latitude": 40.70126,
    "longitude": -111.437066,
    "country": "United States",
    "state_or_region": "Utah",
    "city": "Park City",
    "category": "traffic",
    "stream_url": "https://seedcams.us-webcam-monitor.local/united-states-utah-park-city-traffic-4508/master.m3u8",
    "stream_type": "HLS",
    "source_website": "https://www.udottraffic.utah.gov/",
    "status": "unknown"
  },
  {
    "id": "seed-04509",
    "camera_name": "Moab City Center Webcam",
    "latitude": 38.485334,
    "longitude": -109.431236,
    "country": "United States",
    "state_or_region": "Utah",
    "city": "Moab",
    "category": "city",
    "stream_url": "https://seedcams.us-webcam-monitor.local/united-states-utah-moab-city-4509/master.m3u8",
    "stream_type": "HLS",
    "source_website": "https://www.earthcam.com/",
    "status": "unknown"
  },
  {
    "id": "seed-04510",
    "camera_name": "Springdale Lift Cam",
    "latitude": 37.10161,
    "longitude": -113.086334,
    "country": "United States",
    "state_or_region": "Utah",
    "city": "Springdale",
    "category": "ski",
    "stream_url": "https://seedcams.us-webcam-monitor.local/united-states-utah-springdale-ski-4510/master.m3u8",
    "stream_type": "HLS",
    "source_website": "https://www.snowbird.com/",
    "status": "unknown"
  },
  {
    "id": "seed-04511",
    "camera_name": "Salt Lake City Weather Cam",
    "latitude": 40.692526,
    "longitude": -111.800324,
    "country": "United States",
    "state_or_region": "Utah",
    "city": "Salt Lake City",
    "category": "weather",
    "stream_url": "https://seedcams.us-webcam-monitor.local/united-states-utah-salt-lake-city-weather-4511/camera",
    "stream_type": "UNKNOWN",
    "source_website": "https://weather.gov/",
    "status": "unknown"
  },
  {
    "id": "seed-04512",
    "camera_name": "Park City Nature Cam",
    "latitude": 40.586973,
    "longitude": -111.505573,
    "country": "United States",
    "state_or_region": "Utah",
    "city": "Park City",
    "category": "park",
    "stream_url": "https://seedcams.us-webcam-monitor.local/united-states-utah-park-city-park-4512/snapshot.jpg",
    "stream_type": "IMAGE",
    "source_website": "https://www.nps.gov/zion/index.htm",
    "status": "unknown"
  },
  {
    "id": "seed-04513",
    "camera_name": "Moab Interchange Cam",
    "latitude": 38.614179,
    "longitude": -109.567134,
    "country": "United States",
    "state_or_region": "Utah",
    "city": "Moab",
    "category": "traffic",
    "stream_url": "https://seedcams.us-webcam-monitor.local/united-states-utah-moab-traffic-4513/snapshot.jpg",
    "stream_type": "IMAGE",
    "source_website": "https://www.udottraffic.utah.gov/",
    "status": "unknown"
  },
  {
    "id": "seed-04514",
    "camera_name": "Springdale Conditions Cam",
    "latitude": 37.071469,
    "longitude": -112.913183,
    "country": "United States",
    "state_or_region": "Utah",
    "city": "Springdale",
    "category": "weather",
    "stream_url": "https://seedcams.us-webcam-monitor.local/united-states-utah-springdale-weather-4514/camera",
    "stream_type": "UNKNOWN",
    "source_website": "https://www.weatherbug.com/",
    "status": "unknown"
  },
  {
    "id": "seed-04515",
    "camera_name": "Salt Lake City Traffic Camera",
    "latitude": 40.787191,
    "longitude": -111.830783,
    "country": "United States",
    "state_or_region": "Utah",
    "city": "Salt Lake City",
    "category": "traffic",
    "stream_url": "https://seedcams.us-webcam-monitor.local/united-states-utah-salt-lake-city-traffic-4515/snapshot.jpg",
    "stream_type": "IMAGE",
    "source_website": "https://www.udottraffic.utah.gov/",
    "status": "unknown"
  },
  {
    "id": "seed-04516",
    "camera_name": "Park City Nature Cam",
    "latitude": 40.5397,
    "longitude": -111.551281,
    "country": "United States",
    "state_or_region": "Utah",
    "city": "Park City",
    "category": "park",
    "stream_url": "https://seedcams.us-webcam-monitor.local/united-states-utah-park-city-park-4516/camera",
    "stream_type": "UNKNOWN",
    "source_website": "https://www.nps.gov/zion/index.htm",
    "status": "unknown"
  },
  {
    "id": "seed-04517",
    "camera_name": "Moab Wildlife Cam",
    "latitude": 38.679275,
    "longitude": -109.62827,
    "country": "United States",
    "state_or_region": "Utah",
    "city": "Moab",
    "category": "park",
    "stream_url": "https://seedcams.us-webcam-monitor.local/united-states-utah-moab-park-4517/snapshot.jpg",
    "stream_type": "IMAGE",
    "source_website": "https://www.nps.gov/zion/index.htm",
    "status": "unknown"
  },
  {
    "id": "seed-04518",
    "camera_name": "Springdale Scenic Cam",
    "latitude": 37.2536,
    "longitude": -112.922744,
    "country": "United States",
    "state_or_region": "Utah",
    "city": "Springdale",
    "category": "park",
    "stream_url": "https://seedcams.us-webcam-monitor.local/united-states-utah-springdale-park-4518/master.m3u8",
    "stream_type": "HLS",
    "source_website": "https://www.nps.gov/zion/index.htm",
    "status": "unknown"
  },
  {
    "id": "seed-04519",
    "camera_name": "Salt Lake City Traffic Camera",
    "latitude": 40.705805,
    "longitude": -111.790704,
    "country": "United States",
    "state_or_region": "Utah",
    "city": "Salt Lake City",
    "category": "traffic",
    "stream_url": "https://seedcams.us-webcam-monitor.local/united-states-utah-salt-lake-city-traffic-4519/video.mjpg",
    "stream_type": "MJPEG",
    "source_website": "https://www.udottraffic.utah.gov/",
    "status": "unknown"
  },
  {
    "id": "seed-04520",
    "camera_name": "Park City Landmark Webcam",
    "latitude": 40.655744,
    "longitude": -111.507971,
    "country": "United States",
    "state_or_region": "Utah",
    "city": "Park City",
    "category": "tourism",
    "stream_url": "https://seedcams.us-webcam-monitor.local/united-states-utah-park-city-tourism-4520/webcam",
    "stream_type": "EMBED",
    "source_website": "https://www.skylinewebcams.com/",
    "status": "unknown"
  },
  {
    "id": "seed-04521",
    "camera_name": "Moab Intersection Cam",
    "latitude": 38.64758,
    "longitude": -109.478481,
    "country": "United States",
    "state_or_region": "Utah",
    "city": "Moab",
    "category": "town",
    "stream_url": "https://seedcams.us-webcam-monitor.local/united-states-utah-moab-town-4521/camera",
    "stream_type": "UNKNOWN",
    "source_website": "https://www.earthcam.com/",
    "status": "unknown"
  },
  {
    "id": "seed-04522",
    "camera_name": "Springdale Live View Cam",
    "latitude": 37.177913,
    "longitude": -113.079469,
    "country": "United States",
    "state_or_region": "Utah",
    "city": "Springdale",
    "category": "tourism",
    "stream_url": "https://seedcams.us-webcam-monitor.local/united-states-utah-springdale-tourism-4522/webcam",
    "stream_type": "EMBED",
    "source_website": "https://www.skylinewebcams.com/",
    "status": "unknown"
  },
  {
    "id": "seed-04523",
    "camera_name": "Salt Lake City Traffic Camera",
    "latitude": 40.711042,
    "longitude": -111.799541,
    "country": "United States",
    "state_or_region": "Utah",
    "city": "Salt Lake City",
    "category": "traffic",
    "stream_url": "https://seedcams.us-webcam-monitor.local/united-states-utah-salt-lake-city-traffic-4523/master.m3u8",
    "stream_type": "HLS",
    "source_website": "https://www.udottraffic.utah.gov/",
    "status": "unknown"
  },
  {
    "id": "seed-04524",
    "camera_name": "Park City Highway Camera",
    "latitude": 40.699431,
    "longitude": -111.39809,
    "country": "United States",
    "state_or_region": "Utah",
    "city": "Park City",
    "category": "traffic",
    "stream_url": "https://seedcams.us-webcam-monitor.local/united-states-utah-park-city-traffic-4524/master.m3u8",
    "stream_type": "HLS",
    "source_website": "https://www.udottraffic.utah.gov/",
    "status": "unknown"
  },
  {
    "id": "seed-04525",
    "camera_name": "Moab Wildlife Cam",
    "latitude": 38.564317,
    "longitude": -109.483515,
    "country": "United States",
    "state_or_region": "Utah",
    "city": "Moab",
    "category": "park",
    "stream_url": "https://seedcams.us-webcam-monitor.local/united-states-utah-moab-park-4525/camera",
    "stream_type": "UNKNOWN",
    "source_website": "https://www.nps.gov/zion/index.htm",
    "status": "unknown"
  },
  {
    "id": "seed-04526",
    "camera_name": "Springdale Road Watch Cam",
    "latitude": 37.223026,
    "longitude": -112.952764,
    "country": "United States",
    "state_or_region": "Utah",
    "city": "Springdale",
    "category": "traffic",
    "stream_url": "https://seedcams.us-webcam-monitor.local/united-states-utah-springdale-traffic-4526/camera",
    "stream_type": "UNKNOWN",
    "source_website": "https://www.udottraffic.utah.gov/",
    "status": "unknown"
  },
  {
    "id": "seed-04527",
    "camera_name": "Salt Lake City Park Webcam",
    "latitude": 40.666209,
    "longitude": -111.822202,
    "country": "United States",
    "state_or_region": "Utah",
    "city": "Salt Lake City",
    "category": "park",
    "stream_url": "https://seedcams.us-webcam-monitor.local/united-states-utah-salt-lake-city-park-4527/snapshot.jpg",
    "stream_type": "IMAGE",
    "source_website": "https://www.nps.gov/zion/index.htm",
    "status": "unknown"
  },
  {
    "id": "seed-04528",
    "camera_name": "Park City Snow Cam",
    "latitude": 40.748258,
    "longitude": -111.605989,
    "country": "United States",
    "state_or_region": "Utah",
    "city": "Park City",
    "category": "ski",
    "stream_url": "https://seedcams.us-webcam-monitor.local/united-states-utah-park-city-ski-4528/webcam",
    "stream_type": "EMBED",
    "source_website": "https://www.snowbird.com/",
    "status": "unknown"
  },
  {
    "id": "seed-04529",
    "camera_name": "Moab Wildlife Cam",
    "latitude": 38.582138,
    "longitude": -109.44888,
    "country": "United States",
    "state_or_region": "Utah",
    "city": "Moab",
    "category": "park",
    "stream_url": "https://seedcams.us-webcam-monitor.local/united-states-utah-moab-park-4529/master.m3u8",
    "stream_type": "HLS",
    "source_website": "https://www.nps.gov/zion/index.htm",
    "status": "unknown"
  },
  {
    "id": "seed-04530",
    "camera_name": "Springdale Road Watch Cam",
    "latitude": 37.219841,
    "longitude": -113.037125,
    "country": "United States",
    "state_or_region": "Utah",
    "city": "Springdale",
    "category": "traffic",
    "stream_url": "https://seedcams.us-webcam-monitor.local/united-states-utah-springdale-traffic-4530/snapshot.jpg",
    "stream_type": "IMAGE",
    "source_website": "https://www.udottraffic.utah.gov/",
    "status": "unknown"
  },
  {
    "id": "seed-04531",
    "camera_name": "Salt Lake City Tourism Cam",
    "latitude": 40.678132,
    "longitude": -111.867289,
    "country": "United States",
    "state_or_region": "Utah",
    "city": "Salt Lake City",
    "category": "tourism",
    "stream_url": "https://seedcams.us-webcam-monitor.local/united-states-utah-salt-lake-city-tourism-4531/webcam",
    "stream_type": "EMBED",
    "source_website": "https://www.earthcam.com/",
    "status": "unknown"
  },
  {
    "id": "seed-04532",
    "camera_name": "Park City Landmark Webcam",
    "latitude": 40.691242,
    "longitude": -111.525533,
    "country": "United States",
    "state_or_region": "Utah",
    "city": "Park City",
    "category": "tourism",
    "stream_url": "https://seedcams.us-webcam-monitor.local/united-states-utah-park-city-tourism-4532/master.m3u8",
    "stream_type": "HLS",
    "source_website": "https://www.skylinewebcams.com/",
    "status": "unknown"
  },
  {
    "id": "seed-04533",
    "camera_name": "Moab City Center Webcam",
    "latitude": 38.514433,
    "longitude": -109.548088,
    "country": "United States",
    "state_or_region": "Utah",
    "city": "Moab",
    "category": "city",
    "stream_url": "https://seedcams.us-webcam-monitor.local/united-states-utah-moab-city-4533/master.m3u8",
    "stream_type": "HLS",
    "source_website": "https://www.earthcam.com/",
    "status": "unknown"
  },
  {
    "id": "seed-04534",
    "camera_name": "Springdale Main Street Cam",
    "latitude": 37.185412,
    "longitude": -112.968072,
    "country": "United States",
    "state_or_region": "Utah",
    "city": "Springdale",
    "category": "city",
    "stream_url": "https://seedcams.us-webcam-monitor.local/united-states-utah-springdale-city-4534/camera",
    "stream_type": "UNKNOWN",
    "source_website": "https://www.skylinewebcams.com/",
    "status": "unknown"
  },
  {
    "id": "seed-04535",
    "camera_name": "Salt Lake City Weather Cam",
    "latitude": 40.659114,
    "longitude": -111.966286,
    "country": "United States",
    "state_or_region": "Utah",
    "city": "Salt Lake City",
    "category": "weather",
    "stream_url": "https://seedcams.us-webcam-monitor.local/united-states-utah-salt-lake-city-weather-4535/master.m3u8",
    "stream_type": "HLS",
    "source_website": "https://weather.gov/",
    "status": "unknown"
  },
  {
    "id": "seed-04536",
    "camera_name": "Park City Highway Camera",
    "latitude": 40.537415,
    "longitude": -111.49058,
    "country": "United States",
    "state_or_region": "Utah",
    "city": "Park City",
    "category": "traffic",
    "stream_url": "https://seedcams.us-webcam-monitor.local/united-states-utah-park-city-traffic-4536/video.mjpg",
    "stream_type": "MJPEG",
    "source_website": "https://www.udottraffic.utah.gov/",
    "status": "unknown"
  },
  {
    "id": "seed-04537",
    "camera_name": "Moab Intersection Cam",
    "latitude": 38.620553,
    "longitude": -109.433995,
    "country": "United States",
    "state_or_region": "Utah",
    "city": "Moab",
    "category": "town",
    "stream_url": "https://seedcams.us-webcam-monitor.local/united-states-utah-moab-town-4537/snapshot.jpg",
    "stream_type": "IMAGE",
    "source_website": "https://www.earthcam.com/",
    "status": "unknown"
  },
  {
    "id": "seed-04538",
    "camera_name": "Springdale Lift Cam",
    "latitude": 37.247159,
    "longitude": -113.106601,
    "country": "United States",
    "state_or_region": "Utah",
    "city": "Springdale",
    "category": "ski",
    "stream_url": "https://seedcams.us-webcam-monitor.local/united-states-utah-springdale-ski-4538/webcam",
    "stream_type": "EMBED",
    "source_website": "https://www.snowbird.com/",
    "status": "unknown"
  },
  {
    "id": "seed-04539",
    "camera_name": "Salt Lake City Tourism Cam",
    "latitude": 40.658544,
    "longitude": -111.805786,
    "country": "United States",
    "state_or_region": "Utah",
    "city": "Salt Lake City",
    "category": "tourism",
    "stream_url": "https://seedcams.us-webcam-monitor.local/united-states-utah-salt-lake-city-tourism-4539/camera",
    "stream_type": "UNKNOWN",
    "source_website": "https://www.earthcam.com/",
    "status": "unknown"
  },
  {
    "id": "seed-04540",
    "camera_name": "Park City Landmark Webcam",
    "latitude": 40.692561,
    "longitude": -111.426495,
    "country": "United States",
    "state_or_region": "Utah",
    "city": "Park City",
    "category": "tourism",
    "stream_url": "https://seedcams.us-webcam-monitor.local/united-states-utah-park-city-tourism-4540/master.m3u8",
    "stream_type": "HLS",
    "source_website": "https://www.skylinewebcams.com/",
    "status": "unknown"
  },
  {
    "id": "seed-04541",
    "camera_name": "Moab Intersection Cam",
    "latitude": 38.537905,
    "longitude": -109.528738,
    "country": "United States",
    "state_or_region": "Utah",
    "city": "Moab",
    "category": "town",
    "stream_url": "https://seedcams.us-webcam-monitor.local/united-states-utah-moab-town-4541/video.mjpg",
    "stream_type": "MJPEG",
    "source_website": "https://www.earthcam.com/",
    "status": "unknown"
  },
  {
    "id": "seed-04542",
    "camera_name": "Springdale Lift Cam",
    "latitude": 37.15409,
    "longitude": -112.975037,
    "country": "United States",
    "state_or_region": "Utah",
    "city": "Springdale",
    "category": "ski",
    "stream_url": "https://seedcams.us-webcam-monitor.local/united-states-utah-springdale-ski-4542/master.m3u8",
    "stream_type": "HLS",
    "source_website": "https://www.snowbird.com/",
    "status": "unknown"
  },
  {
    "id": "seed-04543",
    "camera_name": "Salt Lake City Skyline Cam",
    "latitude": 40.667054,
    "longitude": -111.986514,
    "country": "United States",
    "state_or_region": "Utah",
    "city": "Salt Lake City",
    "category": "city",
    "stream_url": "https://seedcams.us-webcam-monitor.local/united-states-utah-salt-lake-city-city-4543/camera",
    "stream_type": "UNKNOWN",
    "source_website": "https://www.earthcam.com/",
    "status": "unknown"
  },
  {
    "id": "seed-04544",
    "camera_name": "Park City Highway Camera",
    "latitude": 40.752983,
    "longitude": -111.438375,
    "country": "United States",
    "state_or_region": "Utah",
    "city": "Park City",
    "category": "traffic",
    "stream_url": "https://seedcams.us-webcam-monitor.local/united-states-utah-park-city-traffic-4544/camera",
    "stream_type": "UNKNOWN",
    "source_website": "https://www.udottraffic.utah.gov/",
    "status": "unknown"
  },
  {
    "id": "seed-04545",
    "camera_name": "Moab Wildlife Cam",
    "latitude": 38.496929,
    "longitude": -109.664649,
    "country": "United States",
    "state_or_region": "Utah",
    "city": "Moab",
    "category": "park",
    "stream_url": "https://seedcams.us-webcam-monitor.local/united-states-utah-moab-park-4545/master.m3u8",
    "stream_type": "HLS",
    "source_website": "https://www.nps.gov/zion/index.htm",
    "status": "unknown"
  },
  {
    "id": "seed-04546",
    "camera_name": "Springdale Live View Cam",
    "latitude": 37.096017,
    "longitude": -113.076325,
    "country": "United States",
    "state_or_region": "Utah",
    "city": "Springdale",
    "category": "tourism",
    "stream_url": "https://seedcams.us-webcam-monitor.local/united-states-utah-springdale-tourism-4546/webcam",
    "stream_type": "EMBED",
    "source_website": "https://www.skylinewebcams.com/",
    "status": "unknown"
  },
  {
    "id": "seed-04547",
    "camera_name": "Salt Lake City Ski Resort Cam",
    "latitude": 40.703362,
    "longitude": -111.800023,
    "country": "United States",
    "state_or_region": "Utah",
    "city": "Salt Lake City",
    "category": "ski",
    "stream_url": "https://seedcams.us-webcam-monitor.local/united-states-utah-salt-lake-city-ski-4547/snapshot.jpg",
    "stream_type": "IMAGE",
    "source_website": "https://www.snowbird.com/",
    "status": "unknown"
  },
  {
    "id": "seed-04548",
    "camera_name": "Park City Storm Watch Cam",
    "latitude": 40.744205,
    "longitude": -111.440391,
    "country": "United States",
    "state_or_region": "Utah",
    "city": "Park City",
    "category": "weather",
    "stream_url": "https://seedcams.us-webcam-monitor.local/united-states-utah-park-city-weather-4548/camera",
    "stream_type": "UNKNOWN",
    "source_website": "https://www.weatherbug.com/",
    "status": "unknown"
  },
  {
    "id": "seed-04549",
    "camera_name": "Moab Interchange Cam",
    "latitude": 38.50022,
    "longitude": -109.435521,
    "country": "United States",
    "state_or_region": "Utah",
    "city": "Moab",
    "category": "traffic",
    "stream_url": "https://seedcams.us-webcam-monitor.local/united-states-utah-moab-traffic-4549/snapshot.jpg",
    "stream_type": "IMAGE",
    "source_website": "https://www.udottraffic.utah.gov/",
    "status": "unknown"
  },
  {
    "id": "seed-04550",
    "camera_name": "Springdale Scenic Cam",
    "latitude": 37.286062,
    "longitude": -113.114155,
    "country": "United States",
    "state_or_region": "Utah",
    "city": "Springdale",
    "category": "park",
    "stream_url": "https://seedcams.us-webcam-monitor.local/united-states-utah-springdale-park-4550/snapshot.jpg",
    "stream_type": "IMAGE",
    "source_website": "https://www.nps.gov/zion/index.htm",
    "status": "unknown"
  },
  {
    "id": "seed-04551",
    "camera_name": "Salt Lake City Weather Cam",
    "latitude": 40.762858,
    "longitude": -111.871773,
    "country": "United States",
    "state_or_region": "Utah",
    "city": "Salt Lake City",
    "category": "weather",
    "stream_url": "https://seedcams.us-webcam-monitor.local/united-states-utah-salt-lake-city-weather-4551/video.mjpg",
    "stream_type": "MJPEG",
    "source_website": "https://weather.gov/",
    "status": "unknown"
  },
  {
    "id": "seed-04552",
    "camera_name": "Park City Nature Cam",
    "latitude": 40.531094,
    "longitude": -111.57811,
    "country": "United States",
    "state_or_region": "Utah",
    "city": "Park City",
    "category": "park",
    "stream_url": "https://seedcams.us-webcam-monitor.local/united-states-utah-park-city-park-4552/snapshot.jpg",
    "stream_type": "IMAGE",
    "source_website": "https://www.nps.gov/zion/index.htm",
    "status": "unknown"
  },
  {
    "id": "seed-04553",
    "camera_name": "Moab Boardwalk Cam",
    "latitude": 38.543906,
    "longitude": -109.548003,
    "country": "United States",
    "state_or_region": "Utah",
    "city": "Moab",
    "category": "tourism",
    "stream_url": "https://seedcams.us-webcam-monitor.local/united-states-utah-moab-tourism-4553/snapshot.jpg",
    "stream_type": "IMAGE",
    "source_website": "https://www.earthcam.com/",
    "status": "unknown"
  },
  {
    "id": "seed-04554",
    "camera_name": "Springdale Scenic Cam",
    "latitude": 37.278889,
    "longitude": -113.073128,
    "country": "United States",
    "state_or_region": "Utah",
    "city": "Springdale",
    "category": "park",
    "stream_url": "https://seedcams.us-webcam-monitor.local/united-states-utah-springdale-park-4554/master.m3u8",
    "stream_type": "HLS",
    "source_website": "https://www.nps.gov/zion/index.htm",
    "status": "unknown"
  },
  {
    "id": "seed-04555",
    "camera_name": "Salt Lake City Skyline Cam",
    "latitude": 40.790539,
    "longitude": -111.794094,
    "country": "United States",
    "state_or_region": "Utah",
    "city": "Salt Lake City",
    "category": "city",
    "stream_url": "https://seedcams.us-webcam-monitor.local/united-states-utah-salt-lake-city-city-4555/webcam",
    "stream_type": "EMBED",
    "source_website": "https://www.earthcam.com/",
    "status": "unknown"
  },
  {
    "id": "seed-04556",
    "camera_name": "Park City Storm Watch Cam",
    "latitude": 40.576309,
    "longitude": -111.390569,
    "country": "United States",
    "state_or_region": "Utah",
    "city": "Park City",
    "category": "weather",
    "stream_url": "https://seedcams.us-webcam-monitor.local/united-states-utah-park-city-weather-4556/video.mjpg",
    "stream_type": "MJPEG",
    "source_website": "https://www.weatherbug.com/",
    "status": "unknown"
  },
  {
    "id": "seed-04557",
    "camera_name": "Moab Base Area Cam",
    "latitude": 38.509261,
    "longitude": -109.625403,
    "country": "United States",
    "state_or_region": "Utah",
    "city": "Moab",
    "category": "ski",
    "stream_url": "https://seedcams.us-webcam-monitor.local/united-states-utah-moab-ski-4557/master.m3u8",
    "stream_type": "HLS",
    "source_website": "https://www.snowbird.com/",
    "status": "unknown"
  },
  {
    "id": "seed-04558",
    "camera_name": "Springdale Village Cam",
    "latitude": 37.25965,
    "longitude": -113.080196,
    "country": "United States",
    "state_or_region": "Utah",
    "city": "Springdale",
    "category": "town",
    "stream_url": "https://seedcams.us-webcam-monitor.local/united-states-utah-springdale-town-4558/webcam",
    "stream_type": "EMBED",
    "source_website": "https://www.visit-europe.com/",
    "status": "unknown"
  },
  {
    "id": "seed-04559",
    "camera_name": "Salt Lake City Park Webcam",
    "latitude": 40.741207,
    "longitude": -111.798403,
    "country": "United States",
    "state_or_region": "Utah",
    "city": "Salt Lake City",
    "category": "park",
    "stream_url": "https://seedcams.us-webcam-monitor.local/united-states-utah-salt-lake-city-park-4559/snapshot.jpg",
    "stream_type": "IMAGE",
    "source_website": "https://www.nps.gov/zion/index.htm",
    "status": "unknown"
  },
  {
    "id": "seed-04560",
    "camera_name": "Park City Nature Cam",
    "latitude": 40.720385,
    "longitude": -111.585883,
    "country": "United States",
    "state_or_region": "Utah",
    "city": "Park City",
    "category": "park",
    "stream_url": "https://seedcams.us-webcam-monitor.local/united-states-utah-park-city-park-4560/snapshot.jpg",
    "stream_type": "IMAGE",
    "source_website": "https://www.nps.gov/zion/index.htm",
    "status": "unknown"
  },
  {
    "id": "seed-04561",
    "camera_name": "Moab Base Area Cam",
    "latitude": 38.675887,
    "longitude": -109.633582,
    "country": "United States",
    "state_or_region": "Utah",
    "city": "Moab",
    "category": "ski",
    "stream_url": "https://seedcams.us-webcam-monitor.local/united-states-utah-moab-ski-4561/snapshot.jpg",
    "stream_type": "IMAGE",
    "source_website": "https://www.snowbird.com/",
    "status": "unknown"
  },
  {
    "id": "seed-04562",
    "camera_name": "Springdale Scenic Cam",
    "latitude": 37.290675,
    "longitude": -112.889388,
    "country": "United States",
    "state_or_region": "Utah",
    "city": "Springdale",
    "category": "park",
    "stream_url": "https://seedcams.us-webcam-monitor.local/united-states-utah-springdale-park-4562/snapshot.jpg",
    "stream_type": "IMAGE",
    "source_website": "https://www.nps.gov/zion/index.htm",
    "status": "unknown"
  },
  {
    "id": "seed-04563",
    "camera_name": "Salt Lake City Tourism Cam",
    "latitude": 40.677192,
    "longitude": -111.934741,
    "country": "United States",
    "state_or_region": "Utah",
    "city": "Salt Lake City",
    "category": "tourism",
    "stream_url": "https://seedcams.us-webcam-monitor.local/united-states-utah-salt-lake-city-tourism-4563/webcam",
    "stream_type": "EMBED",
    "source_website": "https://www.earthcam.com/",
    "status": "unknown"
  },
  {
    "id": "seed-04564",
    "camera_name": "Park City Downtown Cam",
    "latitude": 40.622634,
    "longitude": -111.513386,
    "country": "United States",
    "state_or_region": "Utah",
    "city": "Park City",
    "category": "city",
    "stream_url": "https://seedcams.us-webcam-monitor.local/united-states-utah-park-city-city-4564/snapshot.jpg",
    "stream_type": "IMAGE",
    "source_website": "https://www.skylinewebcams.com/",
    "status": "unknown"
  },
  {
    "id": "seed-04565",
    "camera_name": "Moab Sky Cam",
    "latitude": 38.490301,
    "longitude": -109.571735,
    "country": "United States",
    "state_or_region": "Utah",
    "city": "Moab",
    "category": "weather",
    "stream_url": "https://seedcams.us-webcam-monitor.local/united-states-utah-moab-weather-4565/master.m3u8",
    "stream_type": "HLS",
    "source_website": "https://weather.gov/",
    "status": "unknown"
  },
  {
    "id": "seed-04566",
    "camera_name": "Springdale Live View Cam",
    "latitude": 37.228279,
    "longitude": -112.889651,
    "country": "United States",
    "state_or_region": "Utah",
    "city": "Springdale",
    "category": "tourism",
    "stream_url": "https://seedcams.us-webcam-monitor.local/united-states-utah-springdale-tourism-4566/snapshot.jpg",
    "stream_type": "IMAGE",
    "source_website": "https://www.skylinewebcams.com/",
    "status": "unknown"
  },
  {
    "id": "seed-04567",
    "camera_name": "Salt Lake City Traffic Camera",
    "latitude": 40.721254,
    "longitude": -111.94879,
    "country": "United States",
    "state_or_region": "Utah",
    "city": "Salt Lake City",
    "category": "traffic",
    "stream_url": "https://seedcams.us-webcam-monitor.local/united-states-utah-salt-lake-city-traffic-4567/snapshot.jpg",
    "stream_type": "IMAGE",
    "source_website": "https://www.udottraffic.utah.gov/",
    "status": "unknown"
  },
  {
    "id": "seed-04568",
    "camera_name": "Park City Storm Watch Cam",
    "latitude": 40.658394,
    "longitude": -111.594697,
    "country": "United States",
    "state_or_region": "Utah",
    "city": "Park City",
    "category": "weather",
    "stream_url": "https://seedcams.us-webcam-monitor.local/united-states-utah-park-city-weather-4568/video.mjpg",
    "stream_type": "MJPEG",
    "source_website": "https://www.weatherbug.com/",
    "status": "unknown"
  },
  {
    "id": "seed-04569",
    "camera_name": "Moab Wildlife Cam",
    "latitude": 38.610428,
    "longitude": -109.487332,
    "country": "United States",
    "state_or_region": "Utah",
    "city": "Moab",
    "category": "park",
    "stream_url": "https://seedcams.us-webcam-monitor.local/united-states-utah-moab-park-4569/snapshot.jpg",
    "stream_type": "IMAGE",
    "source_website": "https://www.nps.gov/zion/index.htm",
    "status": "unknown"
  },
  {
    "id": "seed-04570",
    "camera_name": "Springdale Road Watch Cam",
    "latitude": 37.197164,
    "longitude": -112.914362,
    "country": "United States",
    "state_or_region": "Utah",
    "city": "Springdale",
    "category": "traffic",
    "stream_url": "https://seedcams.us-webcam-monitor.local/united-states-utah-springdale-traffic-4570/video.mjpg",
    "stream_type": "MJPEG",
    "source_website": "https://www.udottraffic.utah.gov/",
    "status": "unknown"
  },
  {
    "id": "seed-04571",
    "camera_name": "Salt Lake City Skyline Cam",
    "latitude": 40.837341,
    "longitude": -111.99091,
    "country": "United States",
    "state_or_region": "Utah",
    "city": "Salt Lake City",
    "category": "city",
    "stream_url": "https://seedcams.us-webcam-monitor.local/united-states-utah-salt-lake-city-city-4571/master.m3u8",
    "stream_type": "HLS",
    "source_website": "https://www.earthcam.com/",
    "status": "unknown"
  },
  {
    "id": "seed-04572",
    "camera_name": "Park City Landmark Webcam",
    "latitude": 40.725021,
    "longitude": -111.430293,
    "country": "United States",
    "state_or_region": "Utah",
    "city": "Park City",
    "category": "tourism",
    "stream_url": "https://seedcams.us-webcam-monitor.local/united-states-utah-park-city-tourism-4572/webcam",
    "stream_type": "EMBED",
    "source_website": "https://www.skylinewebcams.com/",
    "status": "unknown"
  },
  {
    "id": "seed-04573",
    "camera_name": "Moab Wildlife Cam",
    "latitude": 38.612359,
    "longitude": -109.457775,
    "country": "United States",
    "state_or_region": "Utah",
    "city": "Moab",
    "category": "park",
    "stream_url": "https://seedcams.us-webcam-monitor.local/united-states-utah-moab-park-4573/snapshot.jpg",
    "stream_type": "IMAGE",
    "source_website": "https://www.nps.gov/zion/index.htm",
    "status": "unknown"
  },
  {
    "id": "seed-04574",
    "camera_name": "Springdale Main Street Cam",
    "latitude": 37.277635,
    "longitude": -112.988174,
    "country": "United States",
    "state_or_region": "Utah",
    "city": "Springdale",
    "category": "city",
    "stream_url": "https://seedcams.us-webcam-monitor.local/united-states-utah-springdale-city-4574/webcam",
    "stream_type": "EMBED",
    "source_website": "https://www.skylinewebcams.com/",
    "status": "unknown"
  },
  {
    "id": "seed-04575",
    "camera_name": "Salt Lake City Ski Resort Cam",
    "latitude": 40.712309,
    "longitude": -112.008975,
    "country": "United States",
    "state_or_region": "Utah",
    "city": "Salt Lake City",
    "category": "ski",
    "stream_url": "https://seedcams.us-webcam-monitor.local/united-states-utah-salt-lake-city-ski-4575/camera",
    "stream_type": "UNKNOWN",
    "source_website": "https://www.snowbird.com/",
    "status": "unknown"
  },
  {
    "id": "seed-04576",
    "camera_name": "Park City Landmark Webcam",
    "latitude": 40.604512,
    "longitude": -111.484495,
    "country": "United States",
    "state_or_region": "Utah",
    "city": "Park City",
    "category": "tourism",
    "stream_url": "https://seedcams.us-webcam-monitor.local/united-states-utah-park-city-tourism-4576/webcam",
    "stream_type": "EMBED",
    "source_website": "https://www.skylinewebcams.com/",
    "status": "unknown"
  },
  {
    "id": "seed-04577",
    "camera_name": "Moab Interchange Cam",
    "latitude": 38.526643,
    "longitude": -109.637744,
    "country": "United States",
    "state_or_region": "Utah",
    "city": "Moab",
    "category": "traffic",
    "stream_url": "https://seedcams.us-webcam-monitor.local/united-states-utah-moab-traffic-4577/video.mjpg",
    "stream_type": "MJPEG",
    "source_website": "https://www.udottraffic.utah.gov/",
    "status": "unknown"
  },
  {
    "id": "seed-04578",
    "camera_name": "Springdale Live View Cam",
    "latitude": 37.259607,
    "longitude": -113.075961,
    "country": "United States",
    "state_or_region": "Utah",
    "city": "Springdale",
    "category": "tourism",
    "stream_url": "https://seedcams.us-webcam-monitor.local/united-states-utah-springdale-tourism-4578/webcam",
    "stream_type": "EMBED",
    "source_website": "https://www.skylinewebcams.com/",
    "status": "unknown"
  },
  {
    "id": "seed-04579",
    "camera_name": "Salt Lake City Town Square Cam",
    "latitude": 40.760279,
    "longitude": -111.857813,
    "country": "United States",
    "state_or_region": "Utah",
    "city": "Salt Lake City",
    "category": "town",
    "stream_url": "https://seedcams.us-webcam-monitor.local/united-states-utah-salt-lake-city-town-4579/camera",
    "stream_type": "UNKNOWN",
    "source_website": "https://www.earthcam.com/",
    "status": "unknown"
  },
  {
    "id": "seed-04580",
    "camera_name": "Park City Storm Watch Cam",
    "latitude": 40.651087,
    "longitude": -111.431775,
    "country": "United States",
    "state_or_region": "Utah",
    "city": "Park City",
    "category": "weather",
    "stream_url": "https://seedcams.us-webcam-monitor.local/united-states-utah-park-city-weather-4580/camera",
    "stream_type": "UNKNOWN",
    "source_website": "https://www.weatherbug.com/",
    "status": "unknown"
  },
  {
    "id": "seed-04581",
    "camera_name": "Moab Intersection Cam",
    "latitude": 38.520925,
    "longitude": -109.460948,
    "country": "United States",
    "state_or_region": "Utah",
    "city": "Moab",
    "category": "town",
    "stream_url": "https://seedcams.us-webcam-monitor.local/united-states-utah-moab-town-4581/video.mjpg",
    "stream_type": "MJPEG",
    "source_website": "https://www.earthcam.com/",
    "status": "unknown"
  },
  {
    "id": "seed-04582",
    "camera_name": "Springdale Main Street Cam",
    "latitude": 37.0974,
    "longitude": -113.014117,
    "country": "United States",
    "state_or_region": "Utah",
    "city": "Springdale",
    "category": "city",
    "stream_url": "https://seedcams.us-webcam-monitor.local/united-states-utah-springdale-city-4582/snapshot.jpg",
    "stream_type": "IMAGE",
    "source_website": "https://www.skylinewebcams.com/",
    "status": "unknown"
  },
  {
    "id": "seed-04583",
    "camera_name": "Salt Lake City Traffic Camera",
    "latitude": 40.68407,
    "longitude": -111.864476,
    "country": "United States",
    "state_or_region": "Utah",
    "city": "Salt Lake City",
    "category": "traffic",
    "stream_url": "https://seedcams.us-webcam-monitor.local/united-states-utah-salt-lake-city-traffic-4583/video.mjpg",
    "stream_type": "MJPEG",
    "source_website": "https://www.udottraffic.utah.gov/",
    "status": "unknown"
  },
  {
    "id": "seed-04584",
    "camera_name": "Park City Downtown Cam",
    "latitude": 40.560859,
    "longitude": -111.599975,
    "country": "United States",
    "state_or_region": "Utah",
    "city": "Park City",
    "category": "city",
    "stream_url": "https://seedcams.us-webcam-monitor.local/united-states-utah-park-city-city-4584/webcam",
    "stream_type": "EMBED",
    "source_website": "https://www.skylinewebcams.com/",
    "status": "unknown"
  },
  {
    "id": "seed-04585",
    "camera_name": "Moab Interchange Cam",
    "latitude": 38.468651,
    "longitude": -109.601563,
    "country": "United States",
    "state_or_region": "Utah",
    "city": "Moab",
    "category": "traffic",
    "stream_url": "https://seedcams.us-webcam-monitor.local/united-states-utah-moab-traffic-4585/video.mjpg",
    "stream_type": "MJPEG",
    "source_website": "https://www.udottraffic.utah.gov/",
    "status": "unknown"
  },
  {
    "id": "seed-04586",
    "camera_name": "Springdale Lift Cam",
    "latitude": 37.259901,
    "longitude": -113.091536,
    "country": "United States",
    "state_or_region": "Utah",
    "city": "Springdale",
    "category": "ski",
    "stream_url": "https://seedcams.us-webcam-monitor.local/united-states-utah-springdale-ski-4586/snapshot.jpg",
    "stream_type": "IMAGE",
    "source_website": "https://www.snowbird.com/",
    "status": "unknown"
  },
  {
    "id": "seed-04587",
    "camera_name": "Salt Lake City Skyline Cam",
    "latitude": 40.860889,
    "longitude": -111.874596,
    "country": "United States",
    "state_or_region": "Utah",
    "city": "Salt Lake City",
    "category": "city",
    "stream_url": "https://seedcams.us-webcam-monitor.local/united-states-utah-salt-lake-city-city-4587/camera",
    "stream_type": "UNKNOWN",
    "source_website": "https://www.earthcam.com/",
    "status": "unknown"
  },
  {
    "id": "seed-04588",
    "camera_name": "Park City Landmark Webcam",
    "latitude": 40.547711,
    "longitude": -111.410952,
    "country": "United States",
    "state_or_region": "Utah",
    "city": "Park City",
    "category": "tourism",
    "stream_url": "https://seedcams.us-webcam-monitor.local/united-states-utah-park-city-tourism-4588/camera",
    "stream_type": "UNKNOWN",
    "source_website": "https://www.skylinewebcams.com/",
    "status": "unknown"
  },
  {
    "id": "seed-04589",
    "camera_name": "Moab Sky Cam",
    "latitude": 38.5508,
    "longitude": -109.523542,
    "country": "United States",
    "state_or_region": "Utah",
    "city": "Moab",
    "category": "weather",
    "stream_url": "https://seedcams.us-webcam-monitor.local/united-states-utah-moab-weather-4589/camera",
    "stream_type": "UNKNOWN",
    "source_website": "https://weather.gov/",
    "status": "unknown"
  },
  {
    "id": "seed-04590",
    "camera_name": "Springdale Village Cam",
    "latitude": 37.234657,
    "longitude": -113.095432,
    "country": "United States",
    "state_or_region": "Utah",
    "city": "Springdale",
    "category": "town",
    "stream_url": "https://seedcams.us-webcam-monitor.local/united-states-utah-springdale-town-4590/snapshot.jpg",
    "stream_type": "IMAGE",
    "source_website": "https://www.visit-europe.com/",
    "status": "unknown"
  },
  {
    "id": "seed-04591",
    "camera_name": "Salt Lake City Traffic Camera",
    "latitude": 40.667414,
    "longitude": -111.879107,
    "country": "United States",
    "state_or_region": "Utah",
    "city": "Salt Lake City",
    "category": "traffic",
    "stream_url": "https://seedcams.us-webcam-monitor.local/united-states-utah-salt-lake-city-traffic-4591/snapshot.jpg",
    "stream_type": "IMAGE",
    "source_website": "https://www.udottraffic.utah.gov/",
    "status": "unknown"
  },
  {
    "id": "seed-04592",
    "camera_name": "Park City Highway Camera",
    "latitude": 40.62744,
    "longitude": -111.612975,
    "country": "United States",
    "state_or_region": "Utah",
    "city": "Park City",
    "category": "traffic",
    "stream_url": "https://seedcams.us-webcam-monitor.local/united-states-utah-park-city-traffic-4592/master.m3u8",
    "stream_type": "HLS",
    "source_website": "https://www.udottraffic.utah.gov/",
    "status": "unknown"
  },
  {
    "id": "seed-04593",
    "camera_name": "Moab City Center Webcam",
    "latitude": 38.453811,
    "longitude": -109.668508,
    "country": "United States",
    "state_or_region": "Utah",
    "city": "Moab",
    "category": "city",
    "stream_url": "https://seedcams.us-webcam-monitor.local/united-states-utah-moab-city-4593/master.m3u8",
    "stream_type": "HLS",
    "source_website": "https://www.earthcam.com/",
    "status": "unknown"
  },
  {
    "id": "seed-04594",
    "camera_name": "Springdale Village Cam",
    "latitude": 37.198318,
    "longitude": -113.072186,
    "country": "United States",
    "state_or_region": "Utah",
    "city": "Springdale",
    "category": "town",
    "stream_url": "https://seedcams.us-webcam-monitor.local/united-states-utah-springdale-town-4594/camera",
    "stream_type": "UNKNOWN",
    "source_website": "https://www.visit-europe.com/",
    "status": "unknown"
  },
  {
    "id": "seed-04595",
    "camera_name": "Salt Lake City Weather Cam",
    "latitude": 40.641724,
    "longitude": -111.859366,
    "country": "United States",
    "state_or_region": "Utah",
    "city": "Salt Lake City",
    "category": "weather",
    "stream_url": "https://seedcams.us-webcam-monitor.local/united-states-utah-salt-lake-city-weather-4595/camera",
    "stream_type": "UNKNOWN",
    "source_website": "https://weather.gov/",
    "status": "unknown"
  },
  {
    "id": "seed-04596",
    "camera_name": "Park City Nature Cam",
    "latitude": 40.584725,
    "longitude": -111.49093,
    "country": "United States",
    "state_or_region": "Utah",
    "city": "Park City",
    "category": "park",
    "stream_url": "https://seedcams.us-webcam-monitor.local/united-states-utah-park-city-park-4596/snapshot.jpg",
    "stream_type": "IMAGE",
    "source_website": "https://www.nps.gov/zion/index.htm",
    "status": "unknown"
  },
  {
    "id": "seed-04597",
    "camera_name": "Moab Wildlife Cam",
    "latitude": 38.677776,
    "longitude": -109.537044,
    "country": "United States",
    "state_or_region": "Utah",
    "city": "Moab",
    "category": "park",
    "stream_url": "https://seedcams.us-webcam-monitor.local/united-states-utah-moab-park-4597/webcam",
    "stream_type": "EMBED",
    "source_website": "https://www.nps.gov/zion/index.htm",
    "status": "unknown"
  },
  {
    "id": "seed-04598",
    "camera_name": "Springdale Road Watch Cam",
    "latitude": 37.263376,
    "longitude": -113.07758,
    "country": "United States",
    "state_or_region": "Utah",
    "city": "Springdale",
    "category": "traffic",
    "stream_url": "https://seedcams.us-webcam-monitor.local/united-states-utah-springdale-traffic-4598/snapshot.jpg",
    "stream_type": "IMAGE",
    "source_website": "https://www.udottraffic.utah.gov/",
    "status": "unknown"
  },
  {
    "id": "seed-04599",
    "camera_name": "Salt Lake City Tourism Cam",
    "latitude": 40.655787,
    "longitude": -111.902736,
    "country": "United States",
    "state_or_region": "Utah",
    "city": "Salt Lake City",
    "category": "tourism",
    "stream_url": "https://seedcams.us-webcam-monitor.local/united-states-utah-salt-lake-city-tourism-4599/snapshot.jpg",
    "stream_type": "IMAGE",
    "source_website": "https://www.earthcam.com/",
    "status": "unknown"
  },
  {
    "id": "seed-04600",
    "camera_name": "Park City Snow Cam",
    "latitude": 40.723532,
    "longitude": -111.436491,
    "country": "United States",
    "state_or_region": "Utah",
    "city": "Park City",
    "category": "ski",
    "stream_url": "https://seedcams.us-webcam-monitor.local/united-states-utah-park-city-ski-4600/snapshot.jpg",
    "stream_type": "IMAGE",
    "source_website": "https://www.snowbird.com/",
    "status": "unknown"
  },
  {
    "id": "seed-04601",
    "camera_name": "Minneapolis Town Square Cam",
    "latitude": 44.900354,
    "longitude": -93.251606,
    "country": "United States",
    "state_or_region": "Minnesota",
    "city": "Minneapolis",
    "category": "town",
    "stream_url": "https://seedcams.us-webcam-monitor.local/united-states-minnesota-minneapolis-town-4601/camera",
    "stream_type": "UNKNOWN",
    "source_website": "https://www.earthcam.com/",
    "status": "unknown"
  },
  {
    "id": "seed-04602",
    "camera_name": "Saint Paul Landmark Webcam",
    "latitude": 44.954084,
    "longitude": -92.99569,
    "country": "United States",
    "state_or_region": "Minnesota",
    "city": "Saint Paul",
    "category": "tourism",
    "stream_url": "https://seedcams.us-webcam-monitor.local/united-states-minnesota-saint-paul-tourism-4602/camera",
    "stream_type": "UNKNOWN",
    "source_website": "https://www.skylinewebcams.com/",
    "status": "unknown"
  },
  {
    "id": "seed-04603",
    "camera_name": "Duluth City Center Webcam",
    "latitude": 46.715623,
    "longitude": -92.025006,
    "country": "United States",
    "state_or_region": "Minnesota",
    "city": "Duluth",
    "category": "city",
    "stream_url": "https://seedcams.us-webcam-monitor.local/united-states-minnesota-duluth-city-4603/camera",
    "stream_type": "UNKNOWN",
    "source_website": "https://www.earthcam.com/",
    "status": "unknown"
  },
  {
    "id": "seed-04604",
    "camera_name": "Bemidji Conditions Cam",
    "latitude": 47.474958,
    "longitude": -94.8479,
    "country": "United States",
    "state_or_region": "Minnesota",
    "city": "Bemidji",
    "category": "weather",
    "stream_url": "https://seedcams.us-webcam-monitor.local/united-states-minnesota-bemidji-weather-4604/master.m3u8",
    "stream_type": "HLS",
    "source_website": "https://www.weather.gov/",
    "status": "unknown"
  },
  {
    "id": "seed-04605",
    "camera_name": "Minneapolis Tourism Cam",
    "latitude": 45.076932,
    "longitude": -93.20499,
    "country": "United States",
    "state_or_region": "Minnesota",
    "city": "Minneapolis",
    "category": "tourism",
    "stream_url": "https://seedcams.us-webcam-monitor.local/united-states-minnesota-minneapolis-tourism-4605/camera",
    "stream_type": "UNKNOWN",
    "source_website": "https://www.earthcam.com/",
    "status": "unknown"
  },
  {
    "id": "seed-04606",
    "camera_name": "Saint Paul Marina Cam",
    "latitude": 44.94287,
    "longitude": -93.15052,
    "country": "United States",
    "state_or_region": "Minnesota",
    "city": "Saint Paul",
    "category": "harbor",
    "stream_url": "https://seedcams.us-webcam-monitor.local/united-states-minnesota-saint-paul-harbor-4606/master.m3u8",
    "stream_type": "HLS",
    "source_website": "https://www.porttechnology.org/",
    "status": "unknown"
  },
  {
    "id": "seed-04607",
    "camera_name": "Duluth Base Area Cam",
    "latitude": 46.692778,
    "longitude": -91.986945,
    "country": "United States",
    "state_or_region": "Minnesota",
    "city": "Duluth",
    "category": "ski",
    "stream_url": "https://seedcams.us-webcam-monitor.local/united-states-minnesota-duluth-ski-4607/camera",
    "stream_type": "UNKNOWN",
    "source_website": "https://www.onthesnow.com/",
    "status": "unknown"
  },
  {
    "id": "seed-04608",
    "camera_name": "Bemidji Road Watch Cam",
    "latitude": 47.543464,
    "longitude": -94.95203,
    "country": "United States",
    "state_or_region": "Minnesota",
    "city": "Bemidji",
    "category": "traffic",
    "stream_url": "https://seedcams.us-webcam-monitor.local/united-states-minnesota-bemidji-traffic-4608/snapshot.jpg",
    "stream_type": "IMAGE",
    "source_website": "https://www.dot.state.mn.us/cameras/",
    "status": "unknown"
  },
  {
    "id": "seed-04609",
    "camera_name": "Minneapolis Traffic Camera",
    "latitude": 44.881596,
    "longitude": -93.255265,
    "country": "United States",
    "state_or_region": "Minnesota",
    "city": "Minneapolis",
    "category": "traffic",
    "stream_url": "https://seedcams.us-webcam-monitor.local/united-states-minnesota-minneapolis-traffic-4609/snapshot.jpg",
    "stream_type": "IMAGE",
    "source_website": "https://www.dot.state.mn.us/cameras/",
    "status": "unknown"
  },
  {
    "id": "seed-04610",
    "camera_name": "Saint Paul Storm Watch Cam",
    "latitude": 44.917539,
    "longitude": -93.16516,
    "country": "United States",
    "state_or_region": "Minnesota",
    "city": "Saint Paul",
    "category": "weather",
    "stream_url": "https://seedcams.us-webcam-monitor.local/united-states-minnesota-saint-paul-weather-4610/camera",
    "stream_type": "UNKNOWN",
    "source_website": "https://www.weather.gov/",
    "status": "unknown"
  },
  {
    "id": "seed-04611",
    "camera_name": "Duluth Port Cam",
    "latitude": 46.681892,
    "longitude": -92.106051,
    "country": "United States",
    "state_or_region": "Minnesota",
    "city": "Duluth",
    "category": "harbor",
    "stream_url": "https://seedcams.us-webcam-monitor.local/united-states-minnesota-duluth-harbor-4611/video.mjpg",
    "stream_type": "MJPEG",
    "source_website": "https://www.marinetraffic.com/",
    "status": "unknown"
  },
  {
    "id": "seed-04612",
    "camera_name": "Bemidji Main Street Cam",
    "latitude": 47.579434,
    "longitude": -94.995552,
    "country": "United States",
    "state_or_region": "Minnesota",
    "city": "Bemidji",
    "category": "city",
    "stream_url": "https://seedcams.us-webcam-monitor.local/united-states-minnesota-bemidji-city-4612/snapshot.jpg",
    "stream_type": "IMAGE",
    "source_website": "https://www.skylinewebcams.com/",
    "status": "unknown"
  },
  {
    "id": "seed-04613",
    "camera_name": "Minneapolis Town Square Cam",
    "latitude": 44.950354,
    "longitude": -93.228846,
    "country": "United States",
    "state_or_region": "Minnesota",
    "city": "Minneapolis",
    "category": "town",
    "stream_url": "https://seedcams.us-webcam-monitor.local/united-states-minnesota-minneapolis-town-4613/webcam",
    "stream_type": "EMBED",
    "source_website": "https://www.earthcam.com/",
    "status": "unknown"
  },
  {
    "id": "seed-04614",
    "camera_name": "Saint Paul Storm Watch Cam",
    "latitude": 44.922556,
    "longitude": -93.07032,
    "country": "United States",
    "state_or_region": "Minnesota",
    "city": "Saint Paul",
    "category": "weather",
    "stream_url": "https://seedcams.us-webcam-monitor.local/united-states-minnesota-saint-paul-weather-4614/video.mjpg",
    "stream_type": "MJPEG",
    "source_website": "https://www.weather.gov/",
    "status": "unknown"
  },
  {
    "id": "seed-04615",
    "camera_name": "Duluth Interchange Cam",
    "latitude": 46.795874,
    "longitude": -92.196392,
    "country": "United States",
    "state_or_region": "Minnesota",
    "city": "Duluth",
    "category": "traffic",
    "stream_url": "https://seedcams.us-webcam-monitor.local/united-states-minnesota-duluth-traffic-4615/master.m3u8",
    "stream_type": "HLS",
    "source_website": "https://www.dot.state.mn.us/cameras/",
    "status": "unknown"
  },
  {
    "id": "seed-04616",
    "camera_name": "Bemidji Main Street Cam",
    "latitude": 47.538478,
    "longitude": -94.851219,
    "country": "United States",
    "state_or_region": "Minnesota",
    "city": "Bemidji",
    "category": "city",
    "stream_url": "https://seedcams.us-webcam-monitor.local/united-states-minnesota-bemidji-city-4616/master.m3u8",
    "stream_type": "HLS",
    "source_website": "https://www.skylinewebcams.com/",
    "status": "unknown"
  },
  {
    "id": "seed-04617",
    "camera_name": "Minneapolis Weather Cam",
    "latitude": 44.95614,
    "longitude": -93.274445,
    "country": "United States",
    "state_or_region": "Minnesota",
    "city": "Minneapolis",
    "category": "weather",
    "stream_url": "https://seedcams.us-webcam-monitor.local/united-states-minnesota-minneapolis-weather-4617/snapshot.jpg",
    "stream_type": "IMAGE",
    "source_website": "https://www.weather.gov/",
    "status": "unknown"
  },
  {
    "id": "seed-04618",
    "camera_name": "Saint Paul Storm Watch Cam",
    "latitude": 45.066485,
    "longitude": -93.10944,
    "country": "United States",
    "state_or_region": "Minnesota",
    "city": "Saint Paul",
    "category": "weather",
    "stream_url": "https://seedcams.us-webcam-monitor.local/united-states-minnesota-saint-paul-weather-4618/snapshot.jpg",
    "stream_type": "IMAGE",
    "source_website": "https://www.weather.gov/",
    "status": "unknown"
  },
  {
    "id": "seed-04619",
    "camera_name": "Duluth Boardwalk Cam",
    "latitude": 46.796544,
    "longitude": -92.148762,
    "country": "United States",
    "state_or_region": "Minnesota",
    "city": "Duluth",
    "category": "tourism",
    "stream_url": "https://seedcams.us-webcam-monitor.local/united-states-minnesota-duluth-tourism-4619/snapshot.jpg",
    "stream_type": "IMAGE",
    "source_website": "https://www.earthcam.com/",
    "status": "unknown"
  },
  {
    "id": "seed-04620",
    "camera_name": "Bemidji Main Street Cam",
    "latitude": 47.515734,
    "longitude": -94.762538,
    "country": "United States",
    "state_or_region": "Minnesota",
    "city": "Bemidji",
    "category": "city",
    "stream_url": "https://seedcams.us-webcam-monitor.local/united-states-minnesota-bemidji-city-4620/master.m3u8",
    "stream_type": "HLS",
    "source_website": "https://www.skylinewebcams.com/",
    "status": "unknown"
  },
  {
    "id": "seed-04621",
    "camera_name": "Minneapolis Tourism Cam",
    "latitude": 44.951589,
    "longitude": -93.296527,
    "country": "United States",
    "state_or_region": "Minnesota",
    "city": "Minneapolis",
    "category": "tourism",
    "stream_url": "https://seedcams.us-webcam-monitor.local/united-states-minnesota-minneapolis-tourism-4621/webcam",
    "stream_type": "EMBED",
    "source_website": "https://www.earthcam.com/",
    "status": "unknown"
  },
  {
    "id": "seed-04622",
    "camera_name": "Saint Paul Main Street Cam",
    "latitude": 44.925973,
    "longitude": -93.169004,
    "country": "United States",
    "state_or_region": "Minnesota",
    "city": "Saint Paul",
    "category": "town",
    "stream_url": "https://seedcams.us-webcam-monitor.local/united-states-minnesota-saint-paul-town-4622/webcam",
    "stream_type": "EMBED",
    "source_website": "https://www.visit-europe.com/",
    "status": "unknown"
  },
  {
    "id": "seed-04623",
    "camera_name": "Duluth Boardwalk Cam",
    "latitude": 46.689308,
    "longitude": -92.142819,
    "country": "United States",
    "state_or_region": "Minnesota",
    "city": "Duluth",
    "category": "tourism",
    "stream_url": "https://seedcams.us-webcam-monitor.local/united-states-minnesota-duluth-tourism-4623/master.m3u8",
    "stream_type": "HLS",
    "source_website": "https://www.earthcam.com/",
    "status": "unknown"
  },
  {
    "id": "seed-04624",
    "camera_name": "Bemidji Road Watch Cam",
    "latitude": 47.495962,
    "longitude": -94.786434,
    "country": "United States",
    "state_or_region": "Minnesota",
    "city": "Bemidji",
    "category": "traffic",
    "stream_url": "https://seedcams.us-webcam-monitor.local/united-states-minnesota-bemidji-traffic-4624/snapshot.jpg",
    "stream_type": "IMAGE",
    "source_website": "https://www.dot.state.mn.us/cameras/",
    "status": "unknown"
  },
  {
    "id": "seed-04625",
    "camera_name": "Minneapolis Traffic Camera",
    "latitude": 45.002363,
    "longitude": -93.223921,
    "country": "United States",
    "state_or_region": "Minnesota",
    "city": "Minneapolis",
    "category": "traffic",
    "stream_url": "https://seedcams.us-webcam-monitor.local/united-states-minnesota-minneapolis-traffic-4625/video.mjpg",
    "stream_type": "MJPEG",
    "source_website": "https://www.dot.state.mn.us/cameras/",
    "status": "unknown"
  },
  {
    "id": "seed-04626",
    "camera_name": "Saint Paul Downtown Cam",
    "latitude": 44.940341,
    "longitude": -93.138513,
    "country": "United States",
    "state_or_region": "Minnesota",
    "city": "Saint Paul",
    "category": "city",
    "stream_url": "https://seedcams.us-webcam-monitor.local/united-states-minnesota-saint-paul-city-4626/master.m3u8",
    "stream_type": "HLS",
    "source_website": "https://www.skylinewebcams.com/",
    "status": "unknown"
  },
  {
    "id": "seed-04627",
    "camera_name": "Duluth Interchange Cam",
    "latitude": 46.672094,
    "longitude": -92.156152,
    "country": "United States",
    "state_or_region": "Minnesota",
    "city": "Duluth",
    "category": "traffic",
    "stream_url": "https://seedcams.us-webcam-monitor.local/united-states-minnesota-duluth-traffic-4627/master.m3u8",
    "stream_type": "HLS",
    "source_website": "https://www.dot.state.mn.us/cameras/",
    "status": "unknown"
  },
  {
    "id": "seed-04628",
    "camera_name": "Bemidji Conditions Cam",
    "latitude": 47.452481,
    "longitude": -94.858636,
    "country": "United States",
    "state_or_region": "Minnesota",
    "city": "Bemidji",
    "category": "weather",
    "stream_url": "https://seedcams.us-webcam-monitor.local/united-states-minnesota-bemidji-weather-4628/master.m3u8",
    "stream_type": "HLS",
    "source_website": "https://www.weather.gov/",
    "status": "unknown"
  },
  {
    "id": "seed-04629",
    "camera_name": "Minneapolis Town Square Cam",
    "latitude": 44.962889,
    "longitude": -93.236503,
    "country": "United States",
    "state_or_region": "Minnesota",
    "city": "Minneapolis",
    "category": "town",
    "stream_url": "https://seedcams.us-webcam-monitor.local/united-states-minnesota-minneapolis-town-4629/snapshot.jpg",
    "stream_type": "IMAGE",
    "source_website": "https://www.earthcam.com/",
    "status": "unknown"
  },
  {
    "id": "seed-04630",
    "camera_name": "Saint Paul Storm Watch Cam",
    "latitude": 44.966479,
    "longitude": -93.067131,
    "country": "United States",
    "state_or_region": "Minnesota",
    "city": "Saint Paul",
    "category": "weather",
    "stream_url": "https://seedcams.us-webcam-monitor.local/united-states-minnesota-saint-paul-weather-4630/video.mjpg",
    "stream_type": "MJPEG",
    "source_website": "https://www.weather.gov/",
    "status": "unknown"
  },
  {
    "id": "seed-04631",
    "camera_name": "Duluth Wildlife Cam",
    "latitude": 46.727878,
    "longitude": -92.136034,
    "country": "United States",
    "state_or_region": "Minnesota",
    "city": "Duluth",
    "category": "park",
    "stream_url": "https://seedcams.us-webcam-monitor.local/united-states-minnesota-duluth-park-4631/webcam",
    "stream_type": "EMBED",
    "source_website": "https://www.nps.gov/",
    "status": "unknown"
  },
  {
    "id": "seed-04632",
    "camera_name": "Bemidji Main Street Cam",
    "latitude": 47.450951,
    "longitude": -94.982236,
    "country": "United States",
    "state_or_region": "Minnesota",
    "city": "Bemidji",
    "category": "city",
    "stream_url": "https://seedcams.us-webcam-monitor.local/united-states-minnesota-bemidji-city-4632/webcam",
    "stream_type": "EMBED",
    "source_website": "https://www.skylinewebcams.com/",
    "status": "unknown"
  },
  {
    "id": "seed-04633",
    "camera_name": "Minneapolis Weather Cam",
    "latitude": 45.050276,
    "longitude": -93.181725,
    "country": "United States",
    "state_or_region": "Minnesota",
    "city": "Minneapolis",
    "category": "weather",
    "stream_url": "https://seedcams.us-webcam-monitor.local/united-states-minnesota-minneapolis-weather-4633/camera",
    "stream_type": "UNKNOWN",
    "source_website": "https://www.weather.gov/",
    "status": "unknown"
  },
  {
    "id": "seed-04634",
    "camera_name": "Saint Paul Highway Camera",
    "latitude": 44.903054,
    "longitude": -93.099999,
    "country": "United States",
    "state_or_region": "Minnesota",
    "city": "Saint Paul",
    "category": "traffic",
    "stream_url": "https://seedcams.us-webcam-monitor.local/united-states-minnesota-saint-paul-traffic-4634/snapshot.jpg",
    "stream_type": "IMAGE",
    "source_website": "https://www.dot.state.mn.us/cameras/",
    "status": "unknown"
  },
  {
    "id": "seed-04635",
    "camera_name": "Duluth Intersection Cam",
    "latitude": 46.76238,
    "longitude": -92.080934,
    "country": "United States",
    "state_or_region": "Minnesota",
    "city": "Duluth",
    "category": "town",
    "stream_url": "https://seedcams.us-webcam-monitor.local/united-states-minnesota-duluth-town-4635/snapshot.jpg",
    "stream_type": "IMAGE",
    "source_website": "https://www.earthcam.com/",
    "status": "unknown"
  },
  {
    "id": "seed-04636",
    "camera_name": "Bemidji Live View Cam",
    "latitude": 47.444997,
    "longitude": -94.813963,
    "country": "United States",
    "state_or_region": "Minnesota",
    "city": "Bemidji",
    "category": "tourism",
    "stream_url": "https://seedcams.us-webcam-monitor.local/united-states-minnesota-bemidji-tourism-4636/webcam",
    "stream_type": "EMBED",
    "source_website": "https://www.skylinewebcams.com/",
    "status": "unknown"
  },
  {
    "id": "seed-04637",
    "camera_name": "Minneapolis Weather Cam",
    "latitude": 44.933649,
    "longitude": -93.19484,
    "country": "United States",
    "state_or_region": "Minnesota",
    "city": "Minneapolis",
    "category": "weather",
    "stream_url": "https://seedcams.us-webcam-monitor.local/united-states-minnesota-minneapolis-weather-4637/snapshot.jpg",
    "stream_type": "IMAGE",
    "source_website": "https://www.weather.gov/",
    "status": "unknown"
  },
  {
    "id": "seed-04638",
    "camera_name": "Saint Paul Highway Camera",
    "latitude": 45.027189,
    "longitude": -92.999799,
    "country": "United States",
    "state_or_region": "Minnesota",
    "city": "Saint Paul",
    "category": "traffic",
    "stream_url": "https://seedcams.us-webcam-monitor.local/united-states-minnesota-saint-paul-traffic-4638/snapshot.jpg",
    "stream_type": "IMAGE",
    "source_website": "https://www.dot.state.mn.us/cameras/",
    "status": "unknown"
  },
  {
    "id": "seed-04639",
    "camera_name": "Duluth Wildlife Cam",
    "latitude": 46.867267,
    "longitude": -91.98372,
    "country": "United States",
    "state_or_region": "Minnesota",
    "city": "Duluth",
    "category": "park",
    "stream_url": "https://seedcams.us-webcam-monitor.local/united-states-minnesota-duluth-park-4639/snapshot.jpg",
    "stream_type": "IMAGE",
    "source_website": "https://www.nps.gov/",
    "status": "unknown"
  },
  {
    "id": "seed-04640",
    "camera_name": "Bemidji Road Watch Cam",
    "latitude": 47.463683,
    "longitude": -94.90509,
    "country": "United States",
    "state_or_region": "Minnesota",
    "city": "Bemidji",
    "category": "traffic",
    "stream_url": "https://seedcams.us-webcam-monitor.local/united-states-minnesota-bemidji-traffic-4640/video.mjpg",
    "stream_type": "MJPEG",
    "source_website": "https://www.dot.state.mn.us/cameras/",
    "status": "unknown"
  },
  {
    "id": "seed-04641",
    "camera_name": "Minneapolis Park Webcam",
    "latitude": 44.87249,
    "longitude": -93.183432,
    "country": "United States",
    "state_or_region": "Minnesota",
    "city": "Minneapolis",
    "category": "park",
    "stream_url": "https://seedcams.us-webcam-monitor.local/united-states-minnesota-minneapolis-park-4641/master.m3u8",
    "stream_type": "HLS",
    "source_website": "https://www.nps.gov/",
    "status": "unknown"
  },
  {
    "id": "seed-04642",
    "camera_name": "Saint Paul Highway Camera",
    "latitude": 44.894339,
    "longitude": -93.08518,
    "country": "United States",
    "state_or_region": "Minnesota",
    "city": "Saint Paul",
    "category": "traffic",
    "stream_url": "https://seedcams.us-webcam-monitor.local/united-states-minnesota-saint-paul-traffic-4642/snapshot.jpg",
    "stream_type": "IMAGE",
    "source_website": "https://www.dot.state.mn.us/cameras/",
    "status": "unknown"
  },
  {
    "id": "seed-04643",
    "camera_name": "Duluth Port Cam",
    "latitude": 46.877242,
    "longitude": -92.082948,
    "country": "United States",
    "state_or_region": "Minnesota",
    "city": "Duluth",
    "category": "harbor",
    "stream_url": "https://seedcams.us-webcam-monitor.local/united-states-minnesota-duluth-harbor-4643/master.m3u8",
    "stream_type": "HLS",
    "source_website": "https://www.marinetraffic.com/",
    "status": "unknown"
  },
  {
    "id": "seed-04644",
    "camera_name": "Bemidji Road Watch Cam",
    "latitude": 47.363476,
    "longitude": -94.884508,
    "country": "United States",
    "state_or_region": "Minnesota",
    "city": "Bemidji",
    "category": "traffic",
    "stream_url": "https://seedcams.us-webcam-monitor.local/united-states-minnesota-bemidji-traffic-4644/snapshot.jpg",
    "stream_type": "IMAGE",
    "source_website": "https://www.dot.state.mn.us/cameras/",
    "status": "unknown"
  },
  {
    "id": "seed-04645",
    "camera_name": "Minneapolis Skyline Cam",
    "latitude": 44.914671,
    "longitude": -93.242199,
    "country": "United States",
    "state_or_region": "Minnesota",
    "city": "Minneapolis",
    "category": "city",
    "stream_url": "https://seedcams.us-webcam-monitor.local/united-states-minnesota-minneapolis-city-4645/webcam",
    "stream_type": "EMBED",
    "source_website": "https://www.earthcam.com/",
    "status": "unknown"
  },
  {
    "id": "seed-04646",
    "camera_name": "Saint Paul Storm Watch Cam",
    "latitude": 45.012143,
    "longitude": -93.184563,
    "country": "United States",
    "state_or_region": "Minnesota",
    "city": "Saint Paul",
    "category": "weather",
    "stream_url": "https://seedcams.us-webcam-monitor.local/united-states-minnesota-saint-paul-weather-4646/camera",
    "stream_type": "UNKNOWN",
    "source_website": "https://www.weather.gov/",
    "status": "unknown"
  },
  {
    "id": "seed-04647",
    "camera_name": "Duluth Wildlife Cam",
    "latitude": 46.723475,
    "longitude": -92.184649,
    "country": "United States",
    "state_or_region": "Minnesota",
    "city": "Duluth",
    "category": "park",
    "stream_url": "https://seedcams.us-webcam-monitor.local/united-states-minnesota-duluth-park-4647/camera",
    "stream_type": "UNKNOWN",
    "source_website": "https://www.nps.gov/",
    "status": "unknown"
  },
  {
    "id": "seed-04648",
    "camera_name": "Bemidji Village Cam",
    "latitude": 47.573248,
    "longitude": -94.988962,
    "country": "United States",
    "state_or_region": "Minnesota",
    "city": "Bemidji",
    "category": "town",
    "stream_url": "https://seedcams.us-webcam-monitor.local/united-states-minnesota-bemidji-town-4648/camera",
    "stream_type": "UNKNOWN",
    "source_website": "https://www.visit-europe.com/",
    "status": "unknown"
  },
  {
    "id": "seed-04649",
    "camera_name": "Minneapolis Traffic Camera",
    "latitude": 45.030649,
    "longitude": -93.202655,
    "country": "United States",
    "state_or_region": "Minnesota",
    "city": "Minneapolis",
    "category": "traffic",
    "stream_url": "https://seedcams.us-webcam-monitor.local/united-states-minnesota-minneapolis-traffic-4649/snapshot.jpg",
    "stream_type": "IMAGE",
    "source_website": "https://www.dot.state.mn.us/cameras/",
    "status": "unknown"
  },
  {
    "id": "seed-04650",
    "camera_name": "Saint Paul Storm Watch Cam",
    "latitude": 45.042365,
    "longitude": -93.066854,
    "country": "United States",
    "state_or_region": "Minnesota",
    "city": "Saint Paul",
    "category": "weather",
    "stream_url": "https://seedcams.us-webcam-monitor.local/united-states-minnesota-saint-paul-weather-4650/video.mjpg",
    "stream_type": "MJPEG",
    "source_website": "https://www.weather.gov/",
    "status": "unknown"
  },
  {
    "id": "seed-04651",
    "camera_name": "Duluth City Center Webcam",
    "latitude": 46.899078,
    "longitude": -92.134715,
    "country": "United States",
    "state_or_region": "Minnesota",
    "city": "Duluth",
    "category": "city",
    "stream_url": "https://seedcams.us-webcam-monitor.local/united-states-minnesota-duluth-city-4651/master.m3u8",
    "stream_type": "HLS",
    "source_website": "https://www.earthcam.com/",
    "status": "unknown"
  },
  {
    "id": "seed-04652",
    "camera_name": "Bemidji Scenic Cam",
    "latitude": 47.537741,
    "longitude": -94.95432,
    "country": "United States",
    "state_or_region": "Minnesota",
    "city": "Bemidji",
    "category": "park",
    "stream_url": "https://seedcams.us-webcam-monitor.local/united-states-minnesota-bemidji-park-4652/master.m3u8",
    "stream_type": "HLS",
    "source_website": "https://www.explore.org/",
    "status": "unknown"
  },
  {
    "id": "seed-04653",
    "camera_name": "Minneapolis Weather Cam",
    "latitude": 45.060521,
    "longitude": -93.147273,
    "country": "United States",
    "state_or_region": "Minnesota",
    "city": "Minneapolis",
    "category": "weather",
    "stream_url": "https://seedcams.us-webcam-monitor.local/united-states-minnesota-minneapolis-weather-4653/video.mjpg",
    "stream_type": "MJPEG",
    "source_website": "https://www.weather.gov/",
    "status": "unknown"
  },
  {
    "id": "seed-04654",
    "camera_name": "Saint Paul Storm Watch Cam",
    "latitude": 44.954337,
    "longitude": -93.094835,
    "country": "United States",
    "state_or_region": "Minnesota",
    "city": "Saint Paul",
    "category": "weather",
    "stream_url": "https://seedcams.us-webcam-monitor.local/united-states-minnesota-saint-paul-weather-4654/video.mjpg",
    "stream_type": "MJPEG",
    "source_website": "https://www.weather.gov/",
    "status": "unknown"
  },
  {
    "id": "seed-04655",
    "camera_name": "Duluth Port Cam",
    "latitude": 46.695096,
    "longitude": -92.107195,
    "country": "United States",
    "state_or_region": "Minnesota",
    "city": "Duluth",
    "category": "harbor",
    "stream_url": "https://seedcams.us-webcam-monitor.local/united-states-minnesota-duluth-harbor-4655/master.m3u8",
    "stream_type": "HLS",
    "source_website": "https://www.marinetraffic.com/",
    "status": "unknown"
  },
  {
    "id": "seed-04656",
    "camera_name": "Bemidji Conditions Cam",
    "latitude": 47.361981,
    "longitude": -94.97318,
    "country": "United States",
    "state_or_region": "Minnesota",
    "city": "Bemidji",
    "category": "weather",
    "stream_url": "https://seedcams.us-webcam-monitor.local/united-states-minnesota-bemidji-weather-4656/video.mjpg",
    "stream_type": "MJPEG",
    "source_website": "https://www.weather.gov/",
    "status": "unknown"
  },
  {
    "id": "seed-04657",
    "camera_name": "Minneapolis Harbor Cam",
    "latitude": 45.071053,
    "longitude": -93.35551,
    "country": "United States",
    "state_or_region": "Minnesota",
    "city": "Minneapolis",
    "category": "harbor",
    "stream_url": "https://seedcams.us-webcam-monitor.local/united-states-minnesota-minneapolis-harbor-4657/snapshot.jpg",
    "stream_type": "IMAGE",
    "source_website": "https://www.marinetraffic.com/",
    "status": "unknown"
  },
  {
    "id": "seed-04658",
    "camera_name": "Saint Paul Highway Camera",
    "latitude": 44.906424,
    "longitude": -92.977457,
    "country": "United States",
    "state_or_region": "Minnesota",
    "city": "Saint Paul",
    "category": "traffic",
    "stream_url": "https://seedcams.us-webcam-monitor.local/united-states-minnesota-saint-paul-traffic-4658/camera",
    "stream_type": "UNKNOWN",
    "source_website": "https://www.dot.state.mn.us/cameras/",
    "status": "unknown"
  },
  {
    "id": "seed-04659",
    "camera_name": "Duluth Interchange Cam",
    "latitude": 46.677084,
    "longitude": -92.104352,
    "country": "United States",
    "state_or_region": "Minnesota",
    "city": "Duluth",
    "category": "traffic",
    "stream_url": "https://seedcams.us-webcam-monitor.local/united-states-minnesota-duluth-traffic-4659/snapshot.jpg",
    "stream_type": "IMAGE",
    "source_website": "https://www.dot.state.mn.us/cameras/",
    "status": "unknown"
  },
  {
    "id": "seed-04660",
    "camera_name": "Bemidji Main Street Cam",
    "latitude": 47.48767,
    "longitude": -94.77731,
    "country": "United States",
    "state_or_region": "Minnesota",
    "city": "Bemidji",
    "category": "city",
    "stream_url": "https://seedcams.us-webcam-monitor.local/united-states-minnesota-bemidji-city-4660/camera",
    "stream_type": "UNKNOWN",
    "source_website": "https://www.skylinewebcams.com/",
    "status": "unknown"
  },
  {
    "id": "seed-04661",
    "camera_name": "Minneapolis Tourism Cam",
    "latitude": 44.930012,
    "longitude": -93.375731,
    "country": "United States",
    "state_or_region": "Minnesota",
    "city": "Minneapolis",
    "category": "tourism",
    "stream_url": "https://seedcams.us-webcam-monitor.local/united-states-minnesota-minneapolis-tourism-4661/master.m3u8",
    "stream_type": "HLS",
    "source_website": "https://www.earthcam.com/",
    "status": "unknown"
  },
  {
    "id": "seed-04662",
    "camera_name": "Saint Paul Highway Camera",
    "latitude": 44.861739,
    "longitude": -92.991561,
    "country": "United States",
    "state_or_region": "Minnesota",
    "city": "Saint Paul",
    "category": "traffic",
    "stream_url": "https://seedcams.us-webcam-monitor.local/united-states-minnesota-saint-paul-traffic-4662/master.m3u8",
    "stream_type": "HLS",
    "source_website": "https://www.dot.state.mn.us/cameras/",
    "status": "unknown"
  },
  {
    "id": "seed-04663",
    "camera_name": "Duluth City Center Webcam",
    "latitude": 46.781345,
    "longitude": -92.144798,
    "country": "United States",
    "state_or_region": "Minnesota",
    "city": "Duluth",
    "category": "city",
    "stream_url": "https://seedcams.us-webcam-monitor.local/united-states-minnesota-duluth-city-4663/webcam",
    "stream_type": "EMBED",
    "source_website": "https://www.earthcam.com/",
    "status": "unknown"
  },
  {
    "id": "seed-04664",
    "camera_name": "Bemidji Conditions Cam",
    "latitude": 47.578946,
    "longitude": -94.956908,
    "country": "United States",
    "state_or_region": "Minnesota",
    "city": "Bemidji",
    "category": "weather",
    "stream_url": "https://seedcams.us-webcam-monitor.local/united-states-minnesota-bemidji-weather-4664/snapshot.jpg",
    "stream_type": "IMAGE",
    "source_website": "https://www.weather.gov/",
    "status": "unknown"
  },
  {
    "id": "seed-04665",
    "camera_name": "Minneapolis Skyline Cam",
    "latitude": 44.909509,
    "longitude": -93.232551,
    "country": "United States",
    "state_or_region": "Minnesota",
    "city": "Minneapolis",
    "category": "city",
    "stream_url": "https://seedcams.us-webcam-monitor.local/united-states-minnesota-minneapolis-city-4665/webcam",
    "stream_type": "EMBED",
    "source_website": "https://www.earthcam.com/",
    "status": "unknown"
  },
  {
    "id": "seed-04666",
    "camera_name": "Saint Paul Downtown Cam",
    "latitude": 44.840756,
    "longitude": -93.090263,
    "country": "United States",
    "state_or_region": "Minnesota",
    "city": "Saint Paul",
    "category": "city",
    "stream_url": "https://seedcams.us-webcam-monitor.local/united-states-minnesota-saint-paul-city-4666/webcam",
    "stream_type": "EMBED",
    "source_website": "https://www.skylinewebcams.com/",
    "status": "unknown"
  },
  {
    "id": "seed-04667",
    "camera_name": "Duluth Sky Cam",
    "latitude": 46.796584,
    "longitude": -92.056164,
    "country": "United States",
    "state_or_region": "Minnesota",
    "city": "Duluth",
    "category": "weather",
    "stream_url": "https://seedcams.us-webcam-monitor.local/united-states-minnesota-duluth-weather-4667/snapshot.jpg",
    "stream_type": "IMAGE",
    "source_website": "https://www.weather.gov/",
    "status": "unknown"
  },
  {
    "id": "seed-04668",
    "camera_name": "Bemidji Scenic Cam",
    "latitude": 47.497788,
    "longitude": -94.921998,
    "country": "United States",
    "state_or_region": "Minnesota",
    "city": "Bemidji",
    "category": "park",
    "stream_url": "https://seedcams.us-webcam-monitor.local/united-states-minnesota-bemidji-park-4668/master.m3u8",
    "stream_type": "HLS",
    "source_website": "https://www.explore.org/",
    "status": "unknown"
  },
  {
    "id": "seed-04669",
    "camera_name": "Minneapolis Traffic Camera",
    "latitude": 44.913422,
    "longitude": -93.330946,
    "country": "United States",
    "state_or_region": "Minnesota",
    "city": "Minneapolis",
    "category": "traffic",
    "stream_url": "https://seedcams.us-webcam-monitor.local/united-states-minnesota-minneapolis-traffic-4669/master.m3u8",
    "stream_type": "HLS",
    "source_website": "https://www.dot.state.mn.us/cameras/",
    "status": "unknown"
  },
  {
    "id": "seed-04670",
    "camera_name": "Saint Paul Highway Camera",
    "latitude": 45.066368,
    "longitude": -93.141007,
    "country": "United States",
    "state_or_region": "Minnesota",
    "city": "Saint Paul",
    "category": "traffic",
    "stream_url": "https://seedcams.us-webcam-monitor.local/united-states-minnesota-saint-paul-traffic-4670/master.m3u8",
    "stream_type": "HLS",
    "source_website": "https://www.dot.state.mn.us/cameras/",
    "status": "unknown"
  },
  {
    "id": "seed-04671",
    "camera_name": "Duluth Port Cam",
    "latitude": 46.706594,
    "longitude": -92.021564,
    "country": "United States",
    "state_or_region": "Minnesota",
    "city": "Duluth",
    "category": "harbor",
    "stream_url": "https://seedcams.us-webcam-monitor.local/united-states-minnesota-duluth-harbor-4671/master.m3u8",
    "stream_type": "HLS",
    "source_website": "https://www.marinetraffic.com/",
    "status": "unknown"
  },
  {
    "id": "seed-04672",
    "camera_name": "Bemidji Live View Cam",
    "latitude": 47.531445,
    "longitude": -94.905647,
    "country": "United States",
    "state_or_region": "Minnesota",
    "city": "Bemidji",
    "category": "tourism",
    "stream_url": "https://seedcams.us-webcam-monitor.local/united-states-minnesota-bemidji-tourism-4672/webcam",
    "stream_type": "EMBED",
    "source_website": "https://www.skylinewebcams.com/",
    "status": "unknown"
  },
  {
    "id": "seed-04673",
    "camera_name": "Minneapolis Skyline Cam",
    "latitude": 45.081124,
    "longitude": -93.368683,
    "country": "United States",
    "state_or_region": "Minnesota",
    "city": "Minneapolis",
    "category": "city",
    "stream_url": "https://seedcams.us-webcam-monitor.local/united-states-minnesota-minneapolis-city-4673/camera",
    "stream_type": "UNKNOWN",
    "source_website": "https://www.earthcam.com/",
    "status": "unknown"
  },
  {
    "id": "seed-04674",
    "camera_name": "Saint Paul Downtown Cam",
    "latitude": 45.055253,
    "longitude": -93.056378,
    "country": "United States",
    "state_or_region": "Minnesota",
    "city": "Saint Paul",
    "category": "city",
    "stream_url": "https://seedcams.us-webcam-monitor.local/united-states-minnesota-saint-paul-city-4674/webcam",
    "stream_type": "EMBED",
    "source_website": "https://www.skylinewebcams.com/",
    "status": "unknown"
  },
  {
    "id": "seed-04675",
    "camera_name": "Duluth City Center Webcam",
    "latitude": 46.704393,
    "longitude": -92.035124,
    "country": "United States",
    "state_or_region": "Minnesota",
    "city": "Duluth",
    "category": "city",
    "stream_url": "https://seedcams.us-webcam-monitor.local/united-states-minnesota-duluth-city-4675/webcam",
    "stream_type": "EMBED",
    "source_website": "https://www.earthcam.com/",
    "status": "unknown"
  },
  {
    "id": "seed-04676",
    "camera_name": "Bemidji Conditions Cam",
    "latitude": 47.412731,
    "longitude": -94.917139,
    "country": "United States",
    "state_or_region": "Minnesota",
    "city": "Bemidji",
    "category": "weather",
    "stream_url": "https://seedcams.us-webcam-monitor.local/united-states-minnesota-bemidji-weather-4676/video.mjpg",
    "stream_type": "MJPEG",
    "source_website": "https://www.weather.gov/",
    "status": "unknown"
  },
  {
    "id": "seed-04677",
    "camera_name": "Minneapolis Park Webcam",
    "latitude": 44.990795,
    "longitude": -93.343967,
    "country": "United States",
    "state_or_region": "Minnesota",
    "city": "Minneapolis",
    "category": "park",
    "stream_url": "https://seedcams.us-webcam-monitor.local/united-states-minnesota-minneapolis-park-4677/webcam",
    "stream_type": "EMBED",
    "source_website": "https://www.nps.gov/",
    "status": "unknown"
  },
  {
    "id": "seed-04678",
    "camera_name": "Saint Paul Snow Cam",
    "latitude": 44.997204,
    "longitude": -93.126894,
    "country": "United States",
    "state_or_region": "Minnesota",
    "city": "Saint Paul",
    "category": "ski",
    "stream_url": "https://seedcams.us-webcam-monitor.local/united-states-minnesota-saint-paul-ski-4678/master.m3u8",
    "stream_type": "HLS",
    "source_website": "https://www.skiinfo.com/",
    "status": "unknown"
  },
  {
    "id": "seed-04679",
    "camera_name": "Duluth City Center Webcam",
    "latitude": 46.764159,
    "longitude": -91.9859,
    "country": "United States",
    "state_or_region": "Minnesota",
    "city": "Duluth",
    "category": "city",
    "stream_url": "https://seedcams.us-webcam-monitor.local/united-states-minnesota-duluth-city-4679/webcam",
    "stream_type": "EMBED",
    "source_website": "https://www.earthcam.com/",
    "status": "unknown"
  },
  {
    "id": "seed-04680",
    "camera_name": "Bemidji Scenic Cam",
    "latitude": 47.373768,
    "longitude": -94.984326,
    "country": "United States",
    "state_or_region": "Minnesota",
    "city": "Bemidji",
    "category": "park",
    "stream_url": "https://seedcams.us-webcam-monitor.local/united-states-minnesota-bemidji-park-4680/snapshot.jpg",
    "stream_type": "IMAGE",
    "source_website": "https://www.explore.org/",
    "status": "unknown"
  },
  {
    "id": "seed-04681",
    "camera_name": "Minneapolis Park Webcam",
    "latitude": 45.062203,
    "longitude": -93.373681,
    "country": "United States",
    "state_or_region": "Minnesota",
    "city": "Minneapolis",
    "category": "park",
    "stream_url": "https://seedcams.us-webcam-monitor.local/united-states-minnesota-minneapolis-park-4681/snapshot.jpg",
    "stream_type": "IMAGE",
    "source_website": "https://www.nps.gov/",
    "status": "unknown"
  },
  {
    "id": "seed-04682",
    "camera_name": "Saint Paul Nature Cam",
    "latitude": 44.941277,
    "longitude": -93.136258,
    "country": "United States",
    "state_or_region": "Minnesota",
    "city": "Saint Paul",
    "category": "park",
    "stream_url": "https://seedcams.us-webcam-monitor.local/united-states-minnesota-saint-paul-park-4682/snapshot.jpg",
    "stream_type": "IMAGE",
    "source_website": "https://www.explore.org/",
    "status": "unknown"
  },
  {
    "id": "seed-04683",
    "camera_name": "Duluth Sky Cam",
    "latitude": 46.819971,
    "longitude": -92.134911,
    "country": "United States",
    "state_or_region": "Minnesota",
    "city": "Duluth",
    "category": "weather",
    "stream_url": "https://seedcams.us-webcam-monitor.local/united-states-minnesota-duluth-weather-4683/master.m3u8",
    "stream_type": "HLS",
    "source_website": "https://www.weather.gov/",
    "status": "unknown"
  },
  {
    "id": "seed-04684",
    "camera_name": "Bemidji Road Watch Cam",
    "latitude": 47.480542,
    "longitude": -94.821896,
    "country": "United States",
    "state_or_region": "Minnesota",
    "city": "Bemidji",
    "category": "traffic",
    "stream_url": "https://seedcams.us-webcam-monitor.local/united-states-minnesota-bemidji-traffic-4684/snapshot.jpg",
    "stream_type": "IMAGE",
    "source_website": "https://www.dot.state.mn.us/cameras/",
    "status": "unknown"
  },
  {
    "id": "seed-04685",
    "camera_name": "Minneapolis Harbor Cam",
    "latitude": 45.047273,
    "longitude": -93.274301,
    "country": "United States",
    "state_or_region": "Minnesota",
    "city": "Minneapolis",
    "category": "harbor",
    "stream_url": "https://seedcams.us-webcam-monitor.local/united-states-minnesota-minneapolis-harbor-4685/master.m3u8",
    "stream_type": "HLS",
    "source_website": "https://www.marinetraffic.com/",
    "status": "unknown"
  },
  {
    "id": "seed-04686",
    "camera_name": "Saint Paul Nature Cam",
    "latitude": 45.027087,
    "longitude": -93.072942,
    "country": "United States",
    "state_or_region": "Minnesota",
    "city": "Saint Paul",
    "category": "park",
    "stream_url": "https://seedcams.us-webcam-monitor.local/united-states-minnesota-saint-paul-park-4686/snapshot.jpg",
    "stream_type": "IMAGE",
    "source_website": "https://www.explore.org/",
    "status": "unknown"
  },
  {
    "id": "seed-04687",
    "camera_name": "Duluth Interchange Cam",
    "latitude": 46.883012,
    "longitude": -92.171738,
    "country": "United States",
    "state_or_region": "Minnesota",
    "city": "Duluth",
    "category": "traffic",
    "stream_url": "https://seedcams.us-webcam-monitor.local/united-states-minnesota-duluth-traffic-4687/video.mjpg",
    "stream_type": "MJPEG",
    "source_website": "https://www.dot.state.mn.us/cameras/",
    "status": "unknown"
  },
  {
    "id": "seed-04688",
    "camera_name": "Bemidji Scenic Cam",
    "latitude": 47.481836,
    "longitude": -94.946961,
    "country": "United States",
    "state_or_region": "Minnesota",
    "city": "Bemidji",
    "category": "park",
    "stream_url": "https://seedcams.us-webcam-monitor.local/united-states-minnesota-bemidji-park-4688/master.m3u8",
    "stream_type": "HLS",
    "source_website": "https://www.explore.org/",
    "status": "unknown"
  },
  {
    "id": "seed-04689",
    "camera_name": "Minneapolis Traffic Camera",
    "latitude": 44.877755,
    "longitude": -93.195996,
    "country": "United States",
    "state_or_region": "Minnesota",
    "city": "Minneapolis",
    "category": "traffic",
    "stream_url": "https://seedcams.us-webcam-monitor.local/united-states-minnesota-minneapolis-traffic-4689/video.mjpg",
    "stream_type": "MJPEG",
    "source_website": "https://www.dot.state.mn.us/cameras/",
    "status": "unknown"
  },
  {
    "id": "seed-04690",
    "camera_name": "Saint Paul Downtown Cam",
    "latitude": 44.988334,
    "longitude": -92.989573,
    "country": "United States",
    "state_or_region": "Minnesota",
    "city": "Saint Paul",
    "category": "city",
    "stream_url": "https://seedcams.us-webcam-monitor.local/united-states-minnesota-saint-paul-city-4690/master.m3u8",
    "stream_type": "HLS",
    "source_website": "https://www.skylinewebcams.com/",
    "status": "unknown"
  },
  {
    "id": "seed-04691",
    "camera_name": "Duluth Intersection Cam",
    "latitude": 46.675684,
    "longitude": -92.106636,
    "country": "United States",
    "state_or_region": "Minnesota",
    "city": "Duluth",
    "category": "town",
    "stream_url": "https://seedcams.us-webcam-monitor.local/united-states-minnesota-duluth-town-4691/webcam",
    "stream_type": "EMBED",
    "source_website": "https://www.earthcam.com/",
    "status": "unknown"
  },
  {
    "id": "seed-04692",
    "camera_name": "Bemidji Conditions Cam",
    "latitude": 47.572866,
    "longitude": -94.983904,
    "country": "United States",
    "state_or_region": "Minnesota",
    "city": "Bemidji",
    "category": "weather",
    "stream_url": "https://seedcams.us-webcam-monitor.local/united-states-minnesota-bemidji-weather-4692/snapshot.jpg",
    "stream_type": "IMAGE",
    "source_website": "https://www.weather.gov/",
    "status": "unknown"
  },
  {
    "id": "seed-04693",
    "camera_name": "Minneapolis Tourism Cam",
    "latitude": 44.971852,
    "longitude": -93.382686,
    "country": "United States",
    "state_or_region": "Minnesota",
    "city": "Minneapolis",
    "category": "tourism",
    "stream_url": "https://seedcams.us-webcam-monitor.local/united-states-minnesota-minneapolis-tourism-4693/master.m3u8",
    "stream_type": "HLS",
    "source_website": "https://www.earthcam.com/",
    "status": "unknown"
  },
  {
    "id": "seed-04694",
    "camera_name": "Saint Paul Landmark Webcam",
    "latitude": 44.909533,
    "longitude": -93.194977,
    "country": "United States",
    "state_or_region": "Minnesota",
    "city": "Saint Paul",
    "category": "tourism",
    "stream_url": "https://seedcams.us-webcam-monitor.local/united-states-minnesota-saint-paul-tourism-4694/master.m3u8",
    "stream_type": "HLS",
    "source_website": "https://www.skylinewebcams.com/",
    "status": "unknown"
  },
  {
    "id": "seed-04695",
    "camera_name": "Duluth Interchange Cam",
    "latitude": 46.740075,
    "longitude": -92.142088,
    "country": "United States",
    "state_or_region": "Minnesota",
    "city": "Duluth",
    "category": "traffic",
    "stream_url": "https://seedcams.us-webcam-monitor.local/united-states-minnesota-duluth-traffic-4695/snapshot.jpg",
    "stream_type": "IMAGE",
    "source_website": "https://www.dot.state.mn.us/cameras/",
    "status": "unknown"
  },
  {
    "id": "seed-04696",
    "camera_name": "Bemidji Main Street Cam",
    "latitude": 47.528545,
    "longitude": -94.884469,
    "country": "United States",
    "state_or_region": "Minnesota",
    "city": "Bemidji",
    "category": "city",
    "stream_url": "https://seedcams.us-webcam-monitor.local/united-states-minnesota-bemidji-city-4696/camera",
    "stream_type": "UNKNOWN",
    "source_website": "https://www.skylinewebcams.com/",
    "status": "unknown"
  },
  {
    "id": "seed-04697",
    "camera_name": "Minneapolis Tourism Cam",
    "latitude": 44.882167,
    "longitude": -93.249514,
    "country": "United States",
    "state_or_region": "Minnesota",
    "city": "Minneapolis",
    "category": "tourism",
    "stream_url": "https://seedcams.us-webcam-monitor.local/united-states-minnesota-minneapolis-tourism-4697/master.m3u8",
    "stream_type": "HLS",
    "source_website": "https://www.earthcam.com/",
    "status": "unknown"
  },
  {
    "id": "seed-04698",
    "camera_name": "Saint Paul Highway Camera",
    "latitude": 44.948508,
    "longitude": -93.139791,
    "country": "United States",
    "state_or_region": "Minnesota",
    "city": "Saint Paul",
    "category": "traffic",
    "stream_url": "https://seedcams.us-webcam-monitor.local/united-states-minnesota-saint-paul-traffic-4698/snapshot.jpg",
    "stream_type": "IMAGE",
    "source_website": "https://www.dot.state.mn.us/cameras/",
    "status": "unknown"
  },
  {
    "id": "seed-04699",
    "camera_name": "Duluth Boardwalk Cam",
    "latitude": 46.843153,
    "longitude": -92.114254,
    "country": "United States",
    "state_or_region": "Minnesota",
    "city": "Duluth",
    "category": "tourism",
    "stream_url": "https://seedcams.us-webcam-monitor.local/united-states-minnesota-duluth-tourism-4699/master.m3u8",
    "stream_type": "HLS",
    "source_website": "https://www.earthcam.com/",
    "status": "unknown"
  },
  {
    "id": "seed-04700",
    "camera_name": "Bemidji Conditions Cam",
    "latitude": 47.547777,
    "longitude": -94.858976,
    "country": "United States",
    "state_or_region": "Minnesota",
    "city": "Bemidji",
    "category": "weather",
    "stream_url": "https://seedcams.us-webcam-monitor.local/united-states-minnesota-bemidji-weather-4700/snapshot.jpg",
    "stream_type": "IMAGE",
    "source_website": "https://www.weather.gov/",
    "status": "unknown"
  },
  {
    "id": "seed-04701",
    "camera_name": "Minneapolis Traffic Camera",
    "latitude": 44.908176,
    "longitude": -93.289947,
    "country": "United States",
    "state_or_region": "Minnesota",
    "city": "Minneapolis",
    "category": "traffic",
    "stream_url": "https://seedcams.us-webcam-monitor.local/united-states-minnesota-minneapolis-traffic-4701/video.mjpg",
    "stream_type": "MJPEG",
    "source_website": "https://www.dot.state.mn.us/cameras/",
    "status": "unknown"
  },
  {
    "id": "seed-04702",
    "camera_name": "Saint Paul Snow Cam",
    "latitude": 45.046978,
    "longitude": -93.059015,
    "country": "United States",
    "state_or_region": "Minnesota",
    "city": "Saint Paul",
    "category": "ski",
    "stream_url": "https://seedcams.us-webcam-monitor.local/united-states-minnesota-saint-paul-ski-4702/snapshot.jpg",
    "stream_type": "IMAGE",
    "source_website": "https://www.skiinfo.com/",
    "status": "unknown"
  },
  {
    "id": "seed-04703",
    "camera_name": "Duluth Sky Cam",
    "latitude": 46.748649,
    "longitude": -92.074198,
    "country": "United States",
    "state_or_region": "Minnesota",
    "city": "Duluth",
    "category": "weather",
    "stream_url": "https://seedcams.us-webcam-monitor.local/united-states-minnesota-duluth-weather-4703/camera",
    "stream_type": "UNKNOWN",
    "source_website": "https://www.weather.gov/",
    "status": "unknown"
  },
  {
    "id": "seed-04704",
    "camera_name": "Bemidji Lift Cam",
    "latitude": 47.519078,
    "longitude": -94.97338,
    "country": "United States",
    "state_or_region": "Minnesota",
    "city": "Bemidji",
    "category": "ski",
    "stream_url": "https://seedcams.us-webcam-monitor.local/united-states-minnesota-bemidji-ski-4704/webcam",
    "stream_type": "EMBED",
    "source_website": "https://www.skiinfo.com/",
    "status": "unknown"
  },
  {
    "id": "seed-04705",
    "camera_name": "Minneapolis Weather Cam",
    "latitude": 44.972926,
    "longitude": -93.246415,
    "country": "United States",
    "state_or_region": "Minnesota",
    "city": "Minneapolis",
    "category": "weather",
    "stream_url": "https://seedcams.us-webcam-monitor.local/united-states-minnesota-minneapolis-weather-4705/video.mjpg",
    "stream_type": "MJPEG",
    "source_website": "https://www.weather.gov/",
    "status": "unknown"
  },
  {
    "id": "seed-04706",
    "camera_name": "Saint Paul Storm Watch Cam",
    "latitude": 45.05717,
    "longitude": -93.039871,
    "country": "United States",
    "state_or_region": "Minnesota",
    "city": "Saint Paul",
    "category": "weather",
    "stream_url": "https://seedcams.us-webcam-monitor.local/united-states-minnesota-saint-paul-weather-4706/snapshot.jpg",
    "stream_type": "IMAGE",
    "source_website": "https://www.weather.gov/",
    "status": "unknown"
  },
  {
    "id": "seed-04707",
    "camera_name": "Duluth Interchange Cam",
    "latitude": 46.796373,
    "longitude": -92.122196,
    "country": "United States",
    "state_or_region": "Minnesota",
    "city": "Duluth",
    "category": "traffic",
    "stream_url": "https://seedcams.us-webcam-monitor.local/united-states-minnesota-duluth-traffic-4707/master.m3u8",
    "stream_type": "HLS",
    "source_website": "https://www.dot.state.mn.us/cameras/",
    "status": "unknown"
  },
  {
    "id": "seed-04708",
    "camera_name": "Bemidji Conditions Cam",
    "latitude": 47.394448,
    "longitude": -94.929546,
    "country": "United States",
    "state_or_region": "Minnesota",
    "city": "Bemidji",
    "category": "weather",
    "stream_url": "https://seedcams.us-webcam-monitor.local/united-states-minnesota-bemidji-weather-4708/camera",
    "stream_type": "UNKNOWN",
    "source_website": "https://www.weather.gov/",
    "status": "unknown"
  },
  {
    "id": "seed-04709",
    "camera_name": "Minneapolis Park Webcam",
    "latitude": 45.044155,
    "longitude": -93.31359,
    "country": "United States",
    "state_or_region": "Minnesota",
    "city": "Minneapolis",
    "category": "park",
    "stream_url": "https://seedcams.us-webcam-monitor.local/united-states-minnesota-minneapolis-park-4709/camera",
    "stream_type": "UNKNOWN",
    "source_website": "https://www.nps.gov/",
    "status": "unknown"
  },
  {
    "id": "seed-04710",
    "camera_name": "Saint Paul Marina Cam",
    "latitude": 44.994498,
    "longitude": -93.036193,
    "country": "United States",
    "state_or_region": "Minnesota",
    "city": "Saint Paul",
    "category": "harbor",
    "stream_url": "https://seedcams.us-webcam-monitor.local/united-states-minnesota-saint-paul-harbor-4710/camera",
    "stream_type": "UNKNOWN",
    "source_website": "https://www.porttechnology.org/",
    "status": "unknown"
  },
  {
    "id": "seed-04711",
    "camera_name": "Duluth Base Area Cam",
    "latitude": 46.80135,
    "longitude": -92.010058,
    "country": "United States",
    "state_or_region": "Minnesota",
    "city": "Duluth",
    "category": "ski",
    "stream_url": "https://seedcams.us-webcam-monitor.local/united-states-minnesota-duluth-ski-4711/snapshot.jpg",
    "stream_type": "IMAGE",
    "source_website": "https://www.onthesnow.com/",
    "status": "unknown"
  },